[
  {
    "name": "산호빌딩",
    "address": "서울특별시 금천구 벚꽃로38길 15",
    "lat": 37.48215245,
    "lng": 126.8839528
  },
  {
    "name": "대명합동시장",
    "address": "서울특별시 금천구 시흥동 884-4",
    "lat": 37.45428665,
    "lng": 126.9018183
  },
  {
    "name": "종합청사",
    "address": "서울특별시 금천구 시흥대로73길 70",
    "lat": 37.45706511,
    "lng": 126.8960352
  },
  {
    "name": "금천종합복지타운",
    "address": "서울특별시 금천구 금하로 764",
    "lat": 37.449608,
    "lng": 126.9146113
  },
  {
    "name": "시흥4동청소년독서실",
    "address": "서울특별시 금천구 독산로32길 16",
    "lat": 37.4573459,
    "lng": 126.9064282
  },
  {
    "name": "금천문화원(1층)",
    "address": "서울특별시 금천구 시흥대로 38길 61",
    "lat": 37.446397,
    "lng": 126.9044442
  },
  {
    "name": "문화체육센터(1층)",
    "address": "서울특별시 금천구 독산로 54길 188",
    "lat": 37.4700707,
    "lng": 126.9073397
  },
  {
    "name": "견인보관소",
    "address": "서울특별시 금천구 가산디지털2로 169-34 (가산동)",
    "lat": 37.48330365,
    "lng": 126.87608161
  },
  {
    "name": "공단본부",
    "address": "서울특별시 금천구 시흥대로37길 18",
    "lat": 37.44588737,
    "lng": 126.9026365
  },
  {
    "name": "독산도서관(1층)",
    "address": "서울특별시 금천구 독산로54길 114",
    "lat": 37.46758091,
    "lng": 126.9081069
  },
  {
    "name": "가산도서관(1층)",
    "address": "서울특별시 금천구 가산로5길 43",
    "lat": 37.4734504,
    "lng": 126.8921274
  },
  {
    "name": "마을활력소 어울샘",
    "address": "서울특별시 금천구 탑골로22",
    "lat": 37.45180869,
    "lng": 126.9116478
  },
  {
    "name": "가산동 주민센터",
    "address": "서울특별시 금천구 가산로 129",
    "lat": 37.4768682,
    "lng": 126.8917561
  },
  {
    "name": "독산1동 주민센터",
    "address": "서울특별시 금천구 시흥대로123길 11",
    "lat": 37.47022076,
    "lng": 126.8970301
  },
  {
    "name": "독산1동 분소",
    "address": "서울특별시 금천구 한내로 69-17",
    "lat": 37.4579178,
    "lng": 126.8877667
  },
  {
    "name": "독산2동 주민센터",
    "address": "서울특별시 금천구 독산로 179, 독산2동주민센터 (독산동)",
    "lat": 37.4631474,
    "lng": 126.90348246
  },
  {
    "name": "독산3동 주민센터",
    "address": "서울특별시 금천구 독산로 317",
    "lat": 37.475137,
    "lng": 126.9031731
  },
  {
    "name": "독산4동 주민센터",
    "address": "서울특별시 금천구 독산로 232",
    "lat": 37.46755452,
    "lng": 126.9021351
  },
  {
    "name": "시흥1동 주민센터",
    "address": "서울특별시 금천구 시흥대로58길 36",
    "lat": 37.4535401,
    "lng": 126.903248
  },
  {
    "name": "시흥2동 주민센터",
    "address": "서울특별시 금천구 금하로 764",
    "lat": 37.4496493,
    "lng": 126.9146113
  },
  {
    "name": "시흥3동 주민센터",
    "address": "서울특별시 금천구 시흥대로18길 40",
    "lat": 37.4402328,
    "lng": 126.9058029
  },
  {
    "name": "시흥4동 주민센터",
    "address": "서울특별시 금천구 독산로36길 14",
    "lat": 37.4589663,
    "lng": 126.9061709
  },
  {
    "name": "시흥5동 주민센터",
    "address": "서울특별시 금천구 금하로21길 20",
    "lat": 37.4523731,
    "lng": 126.9083063
  },
  {
    "name": "1호선 금천구청역",
    "address": "서울특별시 금천구 시흥대로63길 91",
    "lat": 37.45553552,
    "lng": 126.8943636
  },
  {
    "name": "1호선 독산역",
    "address": "서울특별시 금천구 벚꽃로 115",
    "lat": 37.46598642,
    "lng": 126.8895163
  },
  {
    "name": "1호선 가산디지털단지역",
    "address": "서울특별시 금천구 벚꽃로 309",
    "lat": 37.48159601,
    "lng": 126.8825604
  },
  {
    "name": "7호선가산디지털단지역",
    "address": "서울특별시 금천구 벚꽃로 309",
    "lat": 37.48159601,
    "lng": 126.8825604
  },
  {
    "name": "가산우체국",
    "address": "서울특별시 금천구 남부순환로 1288",
    "lat": 37.47843871,
    "lng": 126.8938122
  },
  {
    "name": "구로세관",
    "address": "서울특별시 금천구 가산디지털1로 67",
    "lat": 37.47184219,
    "lng": 126.8849044
  },
  {
    "name": "가산문화센터",
    "address": "서울특별시 금천구 가산디지털1로 118",
    "lat": 37.4761293,
    "lng": 126.8837128
  },
  {
    "name": "금천세무서",
    "address": "서울특별시 금천구 시흥대로152길 11-21",
    "lat": 37.47801866,
    "lng": 126.8998003
  },
  {
    "name": "금천우체국",
    "address": "서울특별시 금천구 시흥대로 410, 서울금천우체국 (독산동)",
    "lat": 37.47014572,
    "lng": 126.89852494
  },
  {
    "name": "서울시흥동우체국",
    "address": "서울특별시 금천구 독산로 123, 시흥본동우체국 (시흥동)",
    "lat": 37.45822583,
    "lng": 126.90507093
  },
  {
    "name": "금천노인종합복지관",
    "address": "서울특별시 금천구 시흥대로51길 93-32",
    "lat": 37.4501451,
    "lng": 126.8977626
  },
  {
    "name": "kt 금천전화국",
    "address": "서울특별시 금천구 시흥대로 139",
    "lat": 37.44644635,
    "lng": 126.9030223
  },
  {
    "name": "남부여성발전센터",
    "address": "서울특별시 금천구 독산로50길 23",
    "lat": 37.46355751,
    "lng": 126.9064706
  },
  {
    "name": "동남주유소",
    "address": "서울특별시 금천구 범안로 1155",
    "lat": 37.46688433,
    "lng": 126.8900383
  },
  {
    "name": "㈜태영유업",
    "address": "서울특별시 금천구 시흥대로 484",
    "lat": 37.47682874,
    "lng": 126.8991162
  },
  {
    "name": "KH에너지㈜직영 시흥대로 주유소",
    "address": "서울특별시 금천구 시흥대로 221",
    "lat": 37.453442,
    "lng": 126.9005383
  },
  {
    "name": "SK네트웍스㈜ 박미주유소",
    "address": "서울특별시 금천구 시흥대로 39-7",
    "lat": 37.43720863,
    "lng": 126.9024534
  },
  {
    "name": "일신주유소",
    "address": "서울특별시 금천구 시흥대로 118",
    "lat": 37.4444904,
    "lng": 126.904244
  },
  {
    "name": "SK네트웍스㈜ 순환도로주유소",
    "address": "서울특별시 금천구 남부순환로 1410",
    "lat": 37.48020539,
    "lng": 126.9075035
  },
  {
    "name": "백운주유소",
    "address": "서울특별시 금천구 시흥대로 282",
    "lat": 37.4589133,
    "lng": 126.8994053
  },
  {
    "name": "백산주유소",
    "address": "서울특별시 금천구 시흥대로 174",
    "lat": 37.44971869,
    "lng": 126.9029548
  },
  {
    "name": "주식회사 명보에너지",
    "address": "서울특별시 금천구 시흥대로 377",
    "lat": 37.4671502,
    "lng": 126.897154
  },
  {
    "name": "SK네트웍스㈜ 이가주유소",
    "address": "서울특별시 금천구 시흥대로 441",
    "lat": 37.47315158,
    "lng": 126.8978925
  },
  {
    "name": "동광석유㈜ 구광주유소",
    "address": "서울특별시 금천구 서부샛길 674",
    "lat": 37.48205329,
    "lng": 126.875184
  },
  {
    "name": "경복에너지",
    "address": "서울특별시 금천구 독산로 147",
    "lat": 37.46050327,
    "lng": 126.9044531
  },
  {
    "name": "대득에너지(금천셀프주유소)",
    "address": "서울특별시 금천구 시흥대로 81",
    "lat": 37.44131058,
    "lng": 126.9030992
  },
  {
    "name": "중앙에너비스㈜ 삼중가스지점",
    "address": "서울특별시 금천구 시흥대로 314",
    "lat": 37.46162991,
    "lng": 126.8984161
  },
  {
    "name": "세한벤처월드",
    "address": "서울특별시 금천구 시흥대로 281",
    "lat": 37.458507,
    "lng": 126.8981453
  },
  {
    "name": "고려빌딩",
    "address": "서울특별시 금천구 시흥대로 421",
    "lat": 37.4711303,
    "lng": 126.897743
  },
  {
    "name": "효연빌딩",
    "address": "서울특별시 금천구 가산로 116",
    "lat": 37.4761063,
    "lng": 126.8931252
  },
  {
    "name": "미도빌딩",
    "address": "서울특별시 금천구 시흥대로 473",
    "lat": 37.47593767,
    "lng": 126.8980461
  },
  {
    "name": "삼일빌딩",
    "address": "서울특별시 금천구 가산로 78",
    "lat": 37.473305,
    "lng": 126.8955551
  },
  {
    "name": "더플레이스빌딩(일오삼플레이스)",
    "address": "서울특별시 금천구 시흥대로 164",
    "lat": 37.4488601,
    "lng": 126.903246
  },
  {
    "name": "삼주물산",
    "address": "서울특별시 금천구 시흥대로 492",
    "lat": 37.47756047,
    "lng": 126.8992429
  },
  {
    "name": "고려테크온",
    "address": "서울특별시 금천구 범안로 1138",
    "lat": 37.4657473,
    "lng": 126.8883773
  },
  {
    "name": "영진빌딩",
    "address": "서울특별시 금천구 시흥대로 426",
    "lat": 37.4715113,
    "lng": 126.8987752
  },
  {
    "name": "석수상가",
    "address": "서울특별시 금천구 삼성산길 3",
    "lat": 37.4342418,
    "lng": 126.9038695
  },
  {
    "name": "JEI PLATZ(재능유통)",
    "address": "서울특별시 금천구 가산디지털1로 186",
    "lat": 37.48191219,
    "lng": 126.881583
  },
  {
    "name": "벧엘감리교회",
    "address": "서울특별시 금천구 독산로 228",
    "lat": 37.46707866,
    "lng": 126.9020509
  },
  {
    "name": "시흥빌딩",
    "address": "서울특별시 금천구 시흥대로 155",
    "lat": 37.44788405,
    "lng": 126.9026929
  },
  {
    "name": "대명여울빛거리시장",
    "address": "서울특별시 금천구 금하로 646-5",
    "lat": 37.4540183,
    "lng": 126.9023422
  },
  {
    "name": "새울빌딩",
    "address": "서울특별시 금천구 시흥대로 414",
    "lat": 37.4705144,
    "lng": 126.8985388
  },
  {
    "name": "농협금천지점",
    "address": "서울특별시 금천구 탑골로 2",
    "lat": 37.450743,
    "lng": 126.9102269
  },
  {
    "name": "농협관악지점",
    "address": "서울특별시 금천구 남부순환로 1366",
    "lat": 37.4793205,
    "lng": 126.9027263
  },
  {
    "name": "농협독산지점",
    "address": "서울특별시 금천구 시흥대로 336",
    "lat": 37.46360803,
    "lng": 126.8978303
  },
  {
    "name": "장안종합사회복지관",
    "address": "서울특별시 동대문구 한천로18길 48",
    "lat": 37.58411,
    "lng": 127.0342124
  },
  {
    "name": "동대문종합사회복지관",
    "address": "서울특별시 동대문구 약령시로5길 22",
    "lat": 37.58416,
    "lng": 127.03423
  },
  {
    "name": "도봉구청사 화장실",
    "address": "서울특별시 도봉구 마들로 656",
    "lat": 37.669,
    "lng": 127.047
  },
  {
    "name": "쌍문1동 주민센터",
    "address": "서울특별시 도봉구 노해로 147",
    "lat": 37.66246,
    "lng": 127.026
  },
  {
    "name": "쌍문2동 주민센터",
    "address": "서울특별시 도봉구 도봉로137길 21",
    "lat": 37.65995,
    "lng": 127.0398
  },
  {
    "name": "쌍문3동 주민센터",
    "address": "서울특별시 도봉구 노해로44길 9",
    "lat": 37.64894,
    "lng": 127.0278
  },
  {
    "name": "쌍문4동 주민센터",
    "address": "서울특별시 도봉구 시루봉로 62-7",
    "lat": 37.65643,
    "lng": 127.0283
  },
  {
    "name": "방학1동 주민센터",
    "address": "서울특별시 도봉구 방학로2길 27",
    "lat": 37.6642,
    "lng": 127.0408
  },
  {
    "name": "방학2동 주민센터",
    "address": "서울특별시 도봉구 시루봉로 226",
    "lat": 37.66829,
    "lng": 127.035
  },
  {
    "name": "방학3동 주민센터",
    "address": "서울특별시 도봉구 시루봉로 94",
    "lat": 37.65915,
    "lng": 127.0279
  },
  {
    "name": "창1동 주민센터",
    "address": "서울특별시 도봉구 해등로 46",
    "lat": 37.64837,
    "lng": 127.0438
  },
  {
    "name": "창2동 주민센터",
    "address": "서울특별시 도봉구 덕릉로59길 73-3",
    "lat": 37.64149,
    "lng": 127.0355
  },
  {
    "name": "창3동 주민센터",
    "address": "서울특별시 도봉구 덕릉로62길 89",
    "lat": 37.63811,
    "lng": 127.0427
  },
  {
    "name": "창4동 주민센터",
    "address": "서울특별시 도봉구 노해로 390",
    "lat": 37.65229,
    "lng": 127.0515
  },
  {
    "name": "창5동 주민센터",
    "address": "서울특별시 도봉구 도봉로136나길 20",
    "lat": 37.65637,
    "lng": 127.0435
  },
  {
    "name": "도봉1동 주민센터",
    "address": "서울특별시 도봉구 도봉로169나길 22",
    "lat": 37.678,
    "lng": 127.0435
  },
  {
    "name": "도봉2동 주민센터",
    "address": "서울특별시 도봉구 마들로 668",
    "lat": 37.66966,
    "lng": 127.0464
  },
  {
    "name": "도봉구보건소",
    "address": "서울특별시 도봉구 방학로3길 117",
    "lat": 37.65812,
    "lng": 127.0385
  },
  {
    "name": "도봉구민회관",
    "address": "서울특별시 도봉구 도봉로 552",
    "lat": 37.65417,
    "lng": 127.0383
  },
  {
    "name": "창동문화체육센터",
    "address": "서울특별시 도봉구 노해로69길 132",
    "lat": 37.65806,
    "lng": 127.0501
  },
  {
    "name": "도봉청소년독서실",
    "address": "서울특별시 도봉구 마들로 605",
    "lat": 37.66412,
    "lng": 127.0462
  },
  {
    "name": "도봉문화정보도서관",
    "address": "서울특별시 도봉구 덕릉로 315",
    "lat": 37.6443,
    "lng": 127.0441
  },
  {
    "name": "도봉아이나라도서관",
    "address": "서울특별시 도봉구 노해로69길 151",
    "lat": 37.65914,
    "lng": 127.0496
  },
  {
    "name": "도봉 기적의 도서관",
    "address": "서울특별시 도봉구 마들로 797",
    "lat": 37.6808,
    "lng": 127.0502
  },
  {
    "name": "학마을도서관",
    "address": "서울특별시 도봉구 시루봉로 128",
    "lat": 37.66221,
    "lng": 127.0276
  },
  {
    "name": "쌍문채움도서관",
    "address": "서울특별시 도봉구 우이천로 340",
    "lat": 37.64697,
    "lng": 127.0261
  },
  {
    "name": "김근태기념도서관",
    "address": "서울특별시 도봉구 도봉산길 14",
    "lat": 37.68766,
    "lng": 127.044
  },
  {
    "name": "원당마을한옥도서관",
    "address": "서울특별시 도봉구 해등로32가길 17",
    "lat": 37.66029,
    "lng": 127.0217
  },
  {
    "name": "무수골도서관",
    "address": "서울특별시 도봉구 도봉로175길 10",
    "lat": 37.68283,
    "lng": 127.0428
  },
  {
    "name": "둘리뮤지엄(둘리도서관)",
    "address": "서울특별시 도봉구 시루봉로1길 6",
    "lat": 37.65212,
    "lng": 127.0278
  },
  {
    "name": "함석헌기념관",
    "address": "서울특별시 도봉구 도봉로123길 33-6",
    "lat": 37.65291,
    "lng": 127.0348
  },
  {
    "name": "김수영문학관",
    "address": "서울특별시 도봉구 해등로32길 80",
    "lat": 37.65993,
    "lng": 127.0237
  },
  {
    "name": "간송옛집",
    "address": "서울특별시 도봉구 시루봉로 149-18",
    "lat": 37.66487,
    "lng": 127.0281
  },
  {
    "name": "도봉실버센터",
    "address": "서울특별시 도봉구 시루봉로 133",
    "lat": 37.66289,
    "lng": 127.027
  },
  {
    "name": "쌍문동어르신복지관",
    "address": "서울특별시 도봉구 우이천로 363",
    "lat": 37.64828,
    "lng": 127.0238
  },
  {
    "name": "방학동어르신복지관",
    "address": "서울특별시 도봉구 시루봉로15라길 59-9",
    "lat": 37.67058,
    "lng": 127.0322
  },
  {
    "name": "도봉동어르신복지관",
    "address": "서울특별시 도봉구 도봉로169가길 52",
    "lat": 37.682081,
    "lng": 127.0434
  },
  {
    "name": "시립도봉노인복지관",
    "address": "서울특별시 도봉구 도당로2길 12-13",
    "lat": 37.65883,
    "lng": 127.0359
  },
  {
    "name": "도봉서원종합사회복지관",
    "address": "서울특별시 도봉구 마들로 668",
    "lat": 37.66966,
    "lng": 127.0464
  },
  {
    "name": "방아골종합사회복지관",
    "address": "서울특별시 도봉구 시루봉로17길 42",
    "lat": 37.66924,
    "lng": 127.0326
  },
  {
    "name": "창동종합사회복지관",
    "address": "서울특별시 도봉구 덕릉로 329",
    "lat": 37.64472,
    "lng": 127.0456
  },
  {
    "name": "쌍문동청소년랜드",
    "address": "서울특별시 도봉구 노해로 140",
    "lat": 37.6472,
    "lng": 127.026
  },
  {
    "name": "창동청소년문화의집",
    "address": "서울특별시 도봉구 덕릉로62길 89",
    "lat": 37.63811,
    "lng": 127.0427
  },
  {
    "name": "도봉동청소년문화의집",
    "address": "서울특별시 도봉구 도봉로180나길 33-61",
    "lat": 37.6843,
    "lng": 127.0468
  },
  {
    "name": "쌍문동청소년문화의집",
    "address": "서울특별시 도봉구 시루봉로2길 34",
    "lat": 37.65428,
    "lng": 127.0289
  },
  {
    "name": "도봉청소년누리터위드",
    "address": "서울특별시 도봉구 덕릉로59길 18",
    "lat": 37.64067,
    "lng": 127.0386
  },
  {
    "name": "노원교주유소",
    "address": "서울특별시 도봉구 마들로 776",
    "lat": 37.67899,
    "lng": 127.0496
  },
  {
    "name": "이케이에너지 주식회사",
    "address": "서울특별시 도봉구 도봉로 941",
    "lat": 37.6884,
    "lng": 127.0453
  },
  {
    "name": "지에스칼텍스(주)도봉주유소",
    "address": "서울특별시 도봉구 도봉로 895",
    "lat": 37.68443,
    "lng": 127.0457
  },
  {
    "name": "북선 공중화장실",
    "address": "서울특별시 성북구 북악산로 949-34, 북선공중화장실 (종암동)",
    "lat": 37.595842,
    "lng": 127.02688
  },
  {
    "name": "북악숲속 공중화장실",
    "address": "서울특별시 성북구 정릉로 72 (정릉동)",
    "lat": 37.610746,
    "lng": 126.993554
  },
  {
    "name": "북한산보국문역 여객화장실",
    "address": "서울특별시 성북구 보국문로 지하88, 북한산보국문역 (정릉동)",
    "lat": 37.612216,
    "lng": 127.00596
  },
  {
    "name": "맥도날드 삼선점 개방화장실",
    "address": "서울특별시 성북구 동소문로 13, 일화빌딩 (동소문동1가)",
    "lat": 37.5893943,
    "lng": 127.0070431
  },
  {
    "name": "삼선동 주민센터",
    "address": "서울특별시 성북구 보문로 190, 삼선동 주민센터 (삼선동4가)",
    "lat": 37.590829,
    "lng": 127.014687
  },
  {
    "name": "삼선주유소 개방화장실",
    "address": "서울특별시 성북구 창경궁로 324, 삼선주유소 (삼선동1가)",
    "lat": 37.5879124,
    "lng": 127.0033863
  },
  {
    "name": "상월곡동 공중화장실",
    "address": "서울특별시 성북구 장월로1가길 99 (상월곡동)",
    "lat": 37.609429,
    "lng": 127.045406
  },
  {
    "name": "상월곡실버복지센터",
    "address": "서울특별시 성북구 화랑로18길 6(상월곡동)",
    "lat": 37.6057825,
    "lng": 127.0458675
  },
  {
    "name": "서경로꿈마루도서관",
    "address": "서울특별시 성북구 서경로 94-1, 서경로꿈마루도서관 (정릉동)",
    "lat": 37.6113602,
    "lng": 127.0135837
  },
  {
    "name": "돈암지구대",
    "address": "서울특별시 성북구 아리랑로5길 54, 돈암지구대 (돈암동)",
    "lat": 37.5972335,
    "lng": 127.0121746
  },
  {
    "name": "서울예술치유허브",
    "address": "서울특별시 성북구 회기로3길 17, 서울예술치유허브 (종암동)",
    "lat": 37.5921399,
    "lng": 127.0368599
  },
  {
    "name": "석관실버복지센터",
    "address": "서울특별시 성북구 화랑로32길 88, 성북구립 석관실버복지센터 (석관동)",
    "lat": 37.6066915,
    "lng": 127.0560694
  },
  {
    "name": "성북2동 공중화장실",
    "address": "서울특별시 성북구 성북로26가길 9 (성북동)[*미고시]",
    "lat": 37.59614,
    "lng": 126.99372
  },
  {
    "name": "오복주유소",
    "address": "서울특별시 도봉구 방학로 43",
    "lat": 37.66231,
    "lng": 127.0473
  },
  {
    "name": "㈜자연에너지 햇살주유소",
    "address": "서울특별시 도봉구 방학로 142",
    "lat": 37.66706,
    "lng": 127.042
  },
  {
    "name": "지에스칼텍스(주)방학동주유소",
    "address": "서울특별시 도봉구 방학로 186",
    "lat": 37.66233,
    "lng": 127.031
  },
  {
    "name": "에이치디현대오일뱅크(주)영신주유소",
    "address": "서울특별시 도봉구 방학로 151",
    "lat": 37.66246,
    "lng": 127.0354
  },
  {
    "name": "한이에너지(주)쌍문주유소",
    "address": "서울특별시 도봉구 도봉로 547",
    "lat": 37.65403,
    "lng": 127.0376
  },
  {
    "name": "쌍문셀프주유소",
    "address": "서울특별시 도봉구 노해로 161",
    "lat": 37.64905,
    "lng": 127.0268
  },
  {
    "name": "삼미상사(주) 북부주유소",
    "address": "서울특별시 도봉구 도봉로 437",
    "lat": 37.64514,
    "lng": 127.0323
  },
  {
    "name": "동일석유(주) 창동주유소",
    "address": "서울특별시 도봉구 도봉로 434",
    "lat": 37.64466,
    "lng": 127.0326
  },
  {
    "name": "대성산업(주) 신창주유소",
    "address": "서울특별시 도봉구 덕릉로 267",
    "lat": 37.64121,
    "lng": 127.0402
  },
  {
    "name": "구도일주유소 파크빌",
    "address": "서울특별시 도봉구 해등로3길 86",
    "lat": 37.64682,
    "lng": 127.0394
  },
  {
    "name": "구도일주유소 도봉",
    "address": "서울특별시 도봉구 도봉로 706",
    "lat": 37.66745,
    "lng": 127.0434
  },
  {
    "name": "㈜이마트 창동점",
    "address": "서울특별시 도봉구 노해로65길 4",
    "lat": 37.65161,
    "lng": 127.0466
  },
  {
    "name": "홈플러스㈜ 방학점",
    "address": "서울특별시 도봉구 도봉로 678",
    "lat": 37.66492,
    "lng": 127.043
  },
  {
    "name": "신동아프라자",
    "address": "서울특별시 도봉구 방학로 223",
    "lat": 37.66161,
    "lng": 127.0272
  },
  {
    "name": "(사)도봉한신쇼핑상가",
    "address": "서울특별시 도봉구 도봉로180나길 41",
    "lat": 37.68569,
    "lng": 127.0493
  },
  {
    "name": "도봉한양프라자",
    "address": "서울특별시 도봉구 마들로724",
    "lat": 37.65648,
    "lng": 127.0329
  },
  {
    "name": "대우상가",
    "address": "서울특별시 도봉구 덕릉로63가길 61",
    "lat": 37.64263,
    "lng": 127.0372
  },
  {
    "name": "창동역동측",
    "address": "서울특별시 도봉구 마들로11길 75-1",
    "lat": 37.65338,
    "lng": 127.0489
  },
  {
    "name": "성북경찰서",
    "address": "서울특별시 성북구 보문로 170, 서울성북경찰서 (삼선동5가)",
    "lat": 37.5897783,
    "lng": 127.0144003
  },
  {
    "name": "성북구립미술관",
    "address": "서울특별시 성북구 성북로 134, 성북구립미술관, 글로벌빌리지센터 (성북동)",
    "lat": 37.594812,
    "lng": 126.9926754
  },
  {
    "name": "성북구민회관",
    "address": "서울특별시 성북구 성북로4길 177, 성북구민회관 (돈암동)",
    "lat": 37.5953982,
    "lng": 127.0079084
  },
  {
    "name": "성북구보건소",
    "address": "서울특별시 성북구 화랑로 63, 성북구보건소 (하월곡동)",
    "lat": 37.6026988,
    "lng": 127.0373469
  },
  {
    "name": "성북구청",
    "address": "서울특별시 성북구 보문로 168, 성북구청 (삼선동5가)",
    "lat": 37.5894118,
    "lng": 127.014644
  },
  {
    "name": "성북노인종합복지관",
    "address": "서울특별시 성북구 종암로15길 10, 성북노인종합복지관 (종암동)",
    "lat": 37.5977127,
    "lng": 127.0342241
  },
  {
    "name": "성북동 주민센터",
    "address": "서울특별시 성북구 성북로 37, 성북동 주민센터 (성북동1가)",
    "lat": 37.5910096,
    "lng": 127.0013397
  },
  {
    "name": "성북성터 공중화장실",
    "address": "서울특별시 성북구 성북로23길 129-2 (성북동)",
    "lat": 37.592651,
    "lng": 126.991235
  },
  {
    "name": "성북세무서",
    "address": "서울특별시 성북구 삼선교로16길 13, 성북세무서 (삼선동3가)",
    "lat": 37.5880119,
    "lng": 127.0105812
  },
  {
    "name": "성북예술창작터",
    "address": "서울특별시 성북구 성북로 23, 성북예술창작터 (성북동1가)",
    "lat": 37.5899985,
    "lng": 127.0039226
  },
  {
    "name": "성북우체국",
    "address": "서울특별시 성북구 동소문로 310, 서울성북우체국 (하월곡동)",
    "lat": 37.6072765,
    "lng": 127.0271572
  },
  {
    "name": "성북장애인복지관",
    "address": "서울특별시 성북구 화랑로 130, 장애인복지관 (하월곡동)",
    "lat": 37.6045302,
    "lng": 127.0455392
  },
  {
    "name": "성북정보화센터",
    "address": "서울특별시 성북구 삼선교로4길 47-1(삼선동1가)",
    "lat": 37.5857026,
    "lng": 127.0069635
  },
  {
    "name": "성북주유소 개방화장실",
    "address": "서울특별시 성북구 보문로 142, 성북주유소 (보문동1가)",
    "lat": 37.5876303,
    "lng": 127.0182065
  },
  {
    "name": "성북학교밖청소년지원센터",
    "address": "서울특별시 성북구 동소문로26다길 8-2(동선동3가)",
    "lat": 37.5940934,
    "lng": 127.0201491
  },
  {
    "name": "성북펜싱체육관",
    "address": "서울특별시 성북구 종암로24가길 109(종암동)",
    "lat": 37.601718,
    "lng": 127.038264
  },
  {
    "name": "성신여대입구역 공중화장실",
    "address": "서울특별시 성북구 동소문로 지하102, 성신여대입구역 (동선동4가)",
    "lat": 37.5928468,
    "lng": 127.0142714
  },
  {
    "name": "성심빌딩 개방화장실",
    "address": "서울특별시 성북구 동소문로 203(돈암동)",
    "lat": 37.6002176,
    "lng": 127.0193885
  },
  {
    "name": "GS세창주유소 개방화장실",
    "address": "서울특별시 성북구 동소문로 323, GS세창주유소 (길음동)",
    "lat": 37.6087438,
    "lng": 127.0292091
  },
  {
    "name": "육아종합지원센터(월곡)",
    "address": "서울특별시 성북구 오패산로10길 19, 성북구육아종합지원센터 (하월곡동)",
    "lat": 37.6056272,
    "lng": 127.0378313
  },
  {
    "name": "강산주유소 개방화장실",
    "address": "서울특별시 성북구 보문로 27, 강산주유소 (보문동7가)",
    "lat": 37.5779766,
    "lng": 127.022713
  },
  {
    "name": "일신건영상가 개방화장실",
    "address": "서울특별시 성북구 아리랑로 89(돈암동, 일신건영휴먼빌아파트)",
    "lat": 37.6008239,
    "lng": 127.0103955
  },
  {
    "name": "장위119 안전센터",
    "address": "서울특별시 성북구 한천로 640, 장위119안전센터 (장위동)",
    "lat": 37.6155823,
    "lng": 127.055958
  },
  {
    "name": "장위1동 주민센터",
    "address": "서울특별시 성북구 장위로 61, 장위1동 주민센터 (장위동)",
    "lat": 37.6140724,
    "lng": 127.0435469
  },
  {
    "name": "장위3동 주민센터",
    "address": "서울특별시 성북구 한천로 657, 장위3동 주민센터 (장위동)",
    "lat": 37.6163845,
    "lng": 127.05468
  },
  {
    "name": "정릉1동커뮤니티센터",
    "address": "서울특별시 성북구 정릉로38가길 6, 정릉1동 커뮤니티센터 (정릉동)",
    "lat": 37.6020603,
    "lng": 127.0182285
  },
  {
    "name": "정릉1호 공중화장실",
    "address": "서울특별시 성북구 보국문로30길 64 (정릉동)",
    "lat": 37.618859,
    "lng": 127.005531
  },
  {
    "name": "정릉2동 주민센터",
    "address": "서울특별시 성북구 정릉로26길 1, 정릉2동 주민센터 (정릉동)",
    "lat": 37.6044197,
    "lng": 127.0089432
  },
  {
    "name": "정릉2차e아파트 상가개방화장실",
    "address": "서울특별시 성북구 북악산로 851(정릉동, 정릉2차 e-편한세상)",
    "lat": 37.5990655,
    "lng": 127.0188052
  },
  {
    "name": "정릉4동 주민센터",
    "address": "서울특별시 성북구 보국문로 106-1, 정릉4동 주민센터 (정릉동)",
    "lat": 37.6133352,
    "lng": 127.006446
  },
  {
    "name": "정릉빌딩 개방화장실",
    "address": "서울특별시 성북구 정릉로 250, 정릉빌딩 (정릉동)",
    "lat": 37.6042304,
    "lng": 127.0091681
  },
  {
    "name": "정릉실버복지센터",
    "address": "서울특별시 성북구 솔샘로 8, 정릉실버복지센터 (정릉동)",
    "lat": 37.608196,
    "lng": 127.004626
  },
  {
    "name": "정릉아동보건지소",
    "address": "서울특별시 성북구 보국문로4길 8(정릉동, 대진빌딩)",
    "lat": 37.6052065,
    "lng": 127.0118206
  },
  {
    "name": "정릉어울림마당 공중화장실",
    "address": "서울특별시 성북구 솔샘로17길 4 (정릉동)",
    "lat": 37.61273,
    "lng": 127.00663
  },
  {
    "name": "정릉천 공중화장실",
    "address": "없음",
    "lat": 37.59264,
    "lng": 127.039659
  },
  {
    "name": "정릉파출소",
    "address": "서울특별시 성북구 솔샘로 111, 정릉지구대 (정릉동)",
    "lat": 37.6160332,
    "lng": 127.0063998
  },
  {
    "name": "정평빌딩 개방화장실",
    "address": "서울특별시 성북구 화랑로 103(하월곡동)",
    "lat": 37.603668,
    "lng": 127.0408475
  },
  {
    "name": "종암마을마당 공중화장실",
    "address": "서울특별시 성북구 종암로30길 114 (종암동)",
    "lat": 37.60153,
    "lng": 127.03899
  },
  {
    "name": "중랑천 이동식 공중화장실",
    "address": "없음",
    "lat": 37.612821,
    "lng": 127.070769
  },
  {
    "name": "성북청소년문화의집",
    "address": "서울특별시 성북구 솔샘로 107(정릉동)",
    "lat": 37.6155383,
    "lng": 127.0082807
  },
  {
    "name": "청수도서관",
    "address": "서울특별시 성북구 보국문로16가길 20(정릉동)",
    "lat": 37.611746,
    "lng": 127.010789
  },
  {
    "name": "청수프라자 1층 개방화장실",
    "address": "서울특별시 성북구 보국문로 50, 청수프라자 (정릉동)",
    "lat": 37.6088183,
    "lng": 127.0079035
  },
  {
    "name": "한성대입구역 공중화장실",
    "address": "서울특별시 성북구 삼선교로 지하1, 한성대입구역 (삼선동1가)",
    "lat": 37.588374,
    "lng": 127.003713
  },
  {
    "name": "해오름도서관",
    "address": "서울특별시 성북구 성북로4길 52(돈암동, 한신한진아파트)",
    "lat": 37.594056,
    "lng": 127.010497
  },
  {
    "name": "월곡구민운동장",
    "address": "서울특별시 성북구 화랑로13길 144, 성북구민체육관 (하월곡동)",
    "lat": 37.608854,
    "lng": 127.041465
  },
  {
    "name": "월곡인조잔디구장",
    "address": "서울특별시 성북구 화랑로13길 144, 월곡인조잔디구장 (하월곡동)",
    "lat": 37.608919,
    "lng": 127.043698
  },
  {
    "name": "장위뉴타워 개방화장실",
    "address": "서울특별시 성북구 화랑로 248, 장위뉴타워 (석관동)",
    "lat": 37.61027,
    "lng": 127.05684
  },
  {
    "name": "정릉역 여객화장실",
    "address": "서울특별시 성북구 아리랑로 지하122, 정릉역 (정릉동)",
    "lat": 37.602667,
    "lng": 127.0113
  },
  {
    "name": "보문역 공중화장실",
    "address": "서울특별시 성북구 보문로 지하116, 보문역 (보문동1가)",
    "lat": 37.585331,
    "lng": 127.017197
  },
  {
    "name": "안암역 공중화장실 지하1층",
    "address": "서울특별시 성북구 고려대로 지하 89, 안암역 (안암동5가)",
    "lat": 37.5862122,
    "lng": 127.0276063
  },
  {
    "name": "안암역 공중화장실 지하2층",
    "address": "서울특별시 성북구 고려대로 지하89, 안암역 (안암동5가)",
    "lat": 37.5862122,
    "lng": 127.0276063
  },
  {
    "name": "상월곡역 공중화장실",
    "address": "서울특별시 성북구 화랑로 지하157, 상월곡역 (상월곡동)",
    "lat": 37.6062305,
    "lng": 127.0461242
  },
  {
    "name": "고려대역 공중화장실",
    "address": "서울특별시 성북구 종암로 지하1, 고려대역 (종암동)",
    "lat": 37.5904862,
    "lng": 127.0340463
  },
  {
    "name": "강산제2주유소 개방화장실",
    "address": "서울특별시 성북구 보국문로 52, 강산제2주유소 (정릉동)",
    "lat": 37.6091669,
    "lng": 127.0078852
  },
  {
    "name": "우리주유소 개방화장실",
    "address": "서울특별시 성북구 화랑로 292, 우리주유소 (석관동)",
    "lat": 37.6128071,
    "lng": 127.0606588
  },
  {
    "name": "제일빌딩 개방화장실",
    "address": "서울특별시 성북구 오패산로 49, 제일빌딩 (하월곡동)",
    "lat": 37.6063569,
    "lng": 127.0342329
  },
  {
    "name": "정릉교회 개방화장실",
    "address": "서울특별시 성북구 정릉로 280, 정릉교회 (정릉동)",
    "lat": 37.6030365,
    "lng": 127.0121839
  },
  {
    "name": "장위기사식당 개방화장실",
    "address": "서울특별시 성북구 돌곶이로 215(장위동)",
    "lat": 37.618577,
    "lng": 127.0457782
  },
  {
    "name": "신방주유소 개방화장실",
    "address": "서울특별시 성북구 안암로 111, 신방주유소 (안암동5가)",
    "lat": 37.5855819,
    "lng": 127.0315171
  },
  {
    "name": "안암교회 개방화장실",
    "address": "서울특별시 성북구 보문로30가길 41-6(안암동1가)",
    "lat": 37.589549,
    "lng": 127.022279
  },
  {
    "name": "안암동 공중화장실",
    "address": "서울특별시 성북구 고려대로8길 7-2 (안암동2가)",
    "lat": 37.585442,
    "lng": 127.021389
  },
  {
    "name": "안암동 주민센터",
    "address": "서울특별시 성북구 고려대로 16, 안암동주민센터 (안암동2가)",
    "lat": 37.585846,
    "lng": 127.021343
  },
  {
    "name": "안암지구대",
    "address": "서울특별시 성북구 지봉로21길 45, 안암지구대 (보문동3가)",
    "lat": 37.5868663,
    "lng": 127.0165253
  },
  {
    "name": "우이천 공중화장실",
    "address": "서울특별시 성북구 장월로 179 (장위동)",
    "lat": 37.61989,
    "lng": 127.05395
  },
  {
    "name": "알뜰원천주유소 개방화장실",
    "address": "서울특별시 성북구 돌곶이로 142, 알뜰원천주유소 (장위동)",
    "lat": 37.6148391,
    "lng": 127.0507189
  },
  {
    "name": "월곡1동 공중화장실",
    "address": "서울특별시 성북구 오패산로3길 77 (하월곡동)",
    "lat": 37.606638,
    "lng": 127.034391
  },
  {
    "name": "월곡1동 주민센터",
    "address": "서울특별시 성북구 오패산로 96, 월곡1동 주민센터 (하월곡동)",
    "lat": 37.6104979,
    "lng": 127.0335588
  },
  {
    "name": "월곡광장 공중화장실",
    "address": "서울특별시 성북구 장위로4길 49 (하월곡동)",
    "lat": 37.61189,
    "lng": 127.03974
  },
  {
    "name": "월곡꿈그림도서관",
    "address": "서울특별시 성북구 화랑로13길 17, 진각종 (하월곡동)",
    "lat": 37.604102,
    "lng": 127.04174
  },
  {
    "name": "월곡배드민턴체육관",
    "address": "서울특별시 성북구 화랑로13길 130, 구립월곡배드민턴전용체욱관 (하월곡동)",
    "lat": 37.608341,
    "lng": 127.041939
  },
  {
    "name": "월곡역 공중화장실",
    "address": "서울특별시 성북구 월곡로 지하107, 월곡역 (하월곡동)",
    "lat": 37.6013172,
    "lng": 127.0391313
  },
  {
    "name": "월곡청소년센터",
    "address": "서울특별시 성북구 화랑로13가길 110, 월곡청소년센터 (하월곡동)",
    "lat": 37.6106901,
    "lng": 127.0403384
  },
  {
    "name": "재정제2주유소 개방화장실",
    "address": "서울특별시 성북구 삼양로 78, 현대주유소 (길음동)",
    "lat": 37.6102644,
    "lng": 127.0205436
  },
  {
    "name": "에너비스 종암주유소 개방화장실",
    "address": "서울특별시 성북구 종암로 58(종암동)",
    "lat": 37.5955237,
    "lng": 127.0356022
  },
  {
    "name": "광덕주유소 개방화장실",
    "address": "서울특별시 성북구 보문로 89, 광덕주유소 (보문동5가)",
    "lat": 37.5831131,
    "lng": 127.0195703
  },
  {
    "name": "북악주유소 개방화장실",
    "address": "서울특별시 성북구 정릉로 218(정릉동)",
    "lat": 37.6054308,
    "lng": 127.0078928
  },
  {
    "name": "아리랑주유소 개방화장실",
    "address": "서울특별시 성북구 아리랑로 96, 아리랑 주유소 (정릉동)",
    "lat": 37.6004167,
    "lng": 127.0141767
  },
  {
    "name": "장삼주유소 개방화장실",
    "address": "서울특별시 성북구 한천로 612, 장삼주유소 (장위동)",
    "lat": 37.6135872,
    "lng": 127.058013
  },
  {
    "name": "개운산스포츠센터",
    "address": "서울특별시 성북구 북악산로 949-60, 개운산스포츠센터 (종암동)",
    "lat": 37.5965518,
    "lng": 127.0259582
  },
  {
    "name": "국민건강보험공단 성북지사",
    "address": "서울특별시 성북구 화랑로 35, 국민건강보험공단성북지사 (하월곡동)",
    "lat": 37.6077072,
    "lng": 127.0279962
  },
  {
    "name": "길음1동 주민센터",
    "address": "서울특별시 성북구 길음로 92, 길음1동 주민센터 (길음동)",
    "lat": 37.6104456,
    "lng": 127.0172531
  },
  {
    "name": "길음역 공중화장실",
    "address": "서울특별시 성북구 동소문로 지하248, 길음역 (길음동)",
    "lat": 37.603245,
    "lng": 127.022765
  },
  {
    "name": "길음환승주차장",
    "address": "서울특별시 성북구 동소문로 260, 길음역환승주차장 (하월곡동)",
    "lat": 37.6040441,
    "lng": 127.0236412
  },
  {
    "name": "노동사목빌딩 개방화장실",
    "address": "서울특별시 성북구 보문로 95, 천주교서울대교구노동사회사목회관 (보문동5가)",
    "lat": 37.5838746,
    "lng": 127.019866
  },
  {
    "name": "돈암1동 주민센터",
    "address": "서울특별시 성북구 정릉로 394, 돈암1동 주민센터 (돈암동)",
    "lat": 37.6033711,
    "lng": 127.0241683
  },
  {
    "name": "돈암마을마당 공중화장실",
    "address": "서울특별시 성북구 북악산로 876 (돈암동)",
    "lat": 37.597895,
    "lng": 127.021166
  },
  {
    "name": "돌곶이역 공중화장실",
    "address": "서울특별시 성북구 화랑로 지하243, 돌곶이역 (석관동)",
    "lat": 37.6104972,
    "lng": 127.0542143
  },
  {
    "name": "동선동 주민센터",
    "address": "서울특별시 성북구 동소문로26길 27, 동선동주민센터 (동선동3가)",
    "lat": 37.5939411,
    "lng": 127.0182058
  },
  {
    "name": "동선보건지소",
    "address": "서울특별시 성북구 아리랑로3길 8, 성북구보건지소 ,동선보건지소 (동소문동6가)",
    "lat": 37.5935735,
    "lng": 127.0135453
  },
  {
    "name": "동일주유소 개방화장실",
    "address": "서울특별시 성북구 보문로 85, 동일주유소 (보문동5가)",
    "lat": 37.5827718,
    "lng": 127.0201874
  },
  {
    "name": "롯데리아 성신여대점 개방화장실",
    "address": "서울특별시 성북구 동소문로 117(동선동4가)",
    "lat": 37.5936758,
    "lng": 127.0176442
  },
  {
    "name": "종암동 주민센터",
    "address": "서울특별시 성북구 종암로 98-8, 종암동주민센터 (종암동)",
    "lat": 37.5990053,
    "lng": 127.033013
  },
  {
    "name": "성북구의회",
    "address": "서울특별시 성북구 북악산로 949-60, 성북구의회청사 (종암동)",
    "lat": 37.5968341,
    "lng": 127.0240519
  },
  {
    "name": "정릉3동 주민센터",
    "address": "서울특별시 성북구 솔샘로1길 6-3, 정릉3동 주민센터 (정릉동)",
    "lat": 37.6089071,
    "lng": 127.0040646
  },
  {
    "name": "월곡2동 주민센터",
    "address": "서울특별시 성북구 화랑로 152, 월곡2동 주민센터 (상월곡동)",
    "lat": 37.6057783,
    "lng": 127.0458728
  },
  {
    "name": "오동근린 공원화장실",
    "address": "서울특별시 성북구 화랑로13길 144, 성북구민체육관 (하월곡동)",
    "lat": 37.6199014,
    "lng": 127.0346397
  },
  {
    "name": "석관동미리내도서관",
    "address": "서울특별시 성북구 한천로66길 203(석관동)",
    "lat": 37.6133688,
    "lng": 127.065357
  },
  {
    "name": "기린빌딩 개방화장실",
    "address": "서울특별시 성북구 삼양로 22, 기린빌딩 (길음동)",
    "lat": 37.6052171,
    "lng": 127.0244915
  },
  {
    "name": "길음2동 주민센터",
    "address": "서울특별시 성북구 삼양로2길 70, 길음2동 주민센터(길음3치안센터) (길음동)",
    "lat": 37.606844,
    "lng": 127.0266357
  },
  {
    "name": "정릉종합사회복지관",
    "address": "서울특별시 성북구 솔샘로5길 92, 정릉종합사회복지관 (정릉동)",
    "lat": 37.6111229,
    "lng": 127.0008761
  },
  {
    "name": "둘리쌍문공원 세심천",
    "address": "서울특별시 도봉구 시루봉로 65-59",
    "lat": 37.65653,
    "lng": 127.0245
  },
  {
    "name": "성북청소년미래지원센터",
    "address": "서울특별시 성북구 오패산로3길 87, 성북청소년미래지원센터 (하월곡동)",
    "lat": 37.6070184,
    "lng": 127.0337432
  },
  {
    "name": "성북정보도서관",
    "address": "서울특별시 성북구 화랑로18자길 13, 성북정보도서관 (상월곡동)",
    "lat": 37.6047878,
    "lng": 127.0503741
  },
  {
    "name": "성북아동청소년센터",
    "address": "서울특별시 성북구 정릉로 242, 성북아동청소년센터 (정릉동)",
    "lat": 37.6047606,
    "lng": 127.0103643
  },
  {
    "name": "길음종합사회복지관",
    "address": "서울특별시 성북구 삼양로2길 55, 길음종합사회복지관 (길음동)",
    "lat": 37.6067151,
    "lng": 127.0263436
  },
  {
    "name": "달빛마루도서관",
    "address": "서울특별시 성북구 종암로 167(하월곡동, 동일하이빌뉴시티)",
    "lat": 37.6049966,
    "lng": 127.0306806
  },
  {
    "name": "석관동 주민센터",
    "address": "서울특별시 성북구 화랑로 296, 석관동 주민센터 (석관동)",
    "lat": 37.6128336,
    "lng": 127.0610867
  },
  {
    "name": "장위2 치안센터",
    "address": "서울특별시 성북구 화랑로19길 85, 장위지구대 (장위동)",
    "lat": 37.60999,
    "lng": 127.0513052
  },
  {
    "name": "월곡지구대",
    "address": "서울특별시 성북구 종암로32길 5, 서울종암경찰서 월곡지구대 (하월곡동)",
    "lat": 37.6044012,
    "lng": 127.0302127
  },
  {
    "name": "석관파출소",
    "address": "서울특별시 성북구 화랑로32가길 20, 석관파출소 (석관동)",
    "lat": 37.6088534,
    "lng": 127.055082
  },
  {
    "name": "길음지구대",
    "address": "서울특별시 성북구 삼양로13길 51, 길음지구대 (길음동)",
    "lat": 37.6105603,
    "lng": 127.0170738
  },
  {
    "name": "정릉2파출소",
    "address": "서울특별시 성북구 정릉로26길 6, 정릉2파출소 (정릉동)",
    "lat": 37.6045232,
    "lng": 127.0085164
  },
  {
    "name": "성북파출소",
    "address": "서울특별시 성북구 성북로 94(성북동)",
    "lat": 37.5938382,
    "lng": 126.9961758
  },
  {
    "name": "종암파출소",
    "address": "서울특별시 성북구 종암로23길 52, 서울종암경찰서 종암파출소 (종암동)",
    "lat": 37.600561,
    "lng": 127.011036
  },
  {
    "name": "돈암119안전센터",
    "address": "서울특별시 성북구 보문로 192, 돈암119 안전센터 (삼선동4가)",
    "lat": 37.5908801,
    "lng": 127.0123329
  },
  {
    "name": "성북소방서",
    "address": "서울특별시 성북구 종암로27길 3, 성북소방서 (종암동)",
    "lat": 37.6023683,
    "lng": 127.0316021
  },
  {
    "name": "성북구민체육관",
    "address": "서울특별시 성북구 화랑로13길 144, 성북구민체육관 (하월곡동)",
    "lat": 37.608526,
    "lng": 127.042325
  },
  {
    "name": "정릉도서관",
    "address": "서울특별시 성북구 정릉로 242, 성북아동청소년센터 (정릉동)",
    "lat": 37.6121959,
    "lng": 127.0054937
  },
  {
    "name": "정릉1동 주민센터",
    "address": "서울특별시 성북구 정릉로38마길 33, 정릉1동 주민센터 (정릉동)",
    "lat": 37.6014001,
    "lng": 127.0144201
  },
  {
    "name": "장위2동 주민센터",
    "address": "서울특별시 성북구 돌곶이로27길 12, 장위2동 주민센터 (장위동)",
    "lat": 37.6123639,
    "lng": 127.0522998
  },
  {
    "name": "다락원체육공원",
    "address": "서울특별시 도봉구 마들로 932",
    "lat": 37.6907,
    "lng": 127.0464
  },
  {
    "name": "월천근린공원",
    "address": "서울특별시 도봉구 노해로70길 86",
    "lat": 37.64736,
    "lng": 127.0512
  },
  {
    "name": "뱃골어린이공원",
    "address": "서울특별시 도봉구 해등로 32-18",
    "lat": 37.64683,
    "lng": 127.045
  },
  {
    "name": "밤골어린이공원",
    "address": "서울특별시 도봉구 해등로4길 38",
    "lat": 37.64881,
    "lng": 127.0455
  },
  {
    "name": "발바닥공원",
    "address": "서울특별시 도봉구 시루봉로6길 33",
    "lat": 37.65954,
    "lng": 127.0295
  },
  {
    "name": "무수골마을입구",
    "address": "서울특별시 도봉구 도봉로169길 302",
    "lat": 37.67713,
    "lng": 127.0304
  },
  {
    "name": "신방학초교 뒤",
    "address": "서울특별시 도봉구 해등로32가길 104",
    "lat": 37.66064,
    "lng": 127.0187
  },
  {
    "name": "장수배드민턴장",
    "address": "서울특별시 도봉구 시루봉로15길 106",
    "lat": 37.66924,
    "lng": 127.0285
  },
  {
    "name": "보문동 주민센터",
    "address": "서울특별시 성북구 안암로3길 35, 보문동주민센터 (보문동7가)",
    "lat": 37.5803581,
    "lng": 127.0224787
  },
  {
    "name": "해오름휘트니스센터",
    "address": "서울특별시 성북구 성북로4길 52(돈암동, 한신한진아파트)",
    "lat": 37.594056,
    "lng": 127.010497
  },
  {
    "name": "종암박스파크",
    "address": "서울특별시 성북구 화랑로 6, 종암박스파크 (종암동)",
    "lat": 37.603191,
    "lng": 127.033005
  },
  {
    "name": "돈암2동 주민센터",
    "address": "서울특별시 성북구 흥천사길 7, 돈암2동 주민센터 (돈암동)",
    "lat": 37.5980029,
    "lng": 127.0103856
  },
  {
    "name": "의릉",
    "address": "서울특별시 성북구 화랑로32길 146-20, 문화재청의릉지구관리소 (석관동)",
    "lat": 37.605134,
    "lng": 127.059424
  },
  {
    "name": "육아종합지원센터(보문)",
    "address": "서울특별시 성북구 지봉로24길 26(보문동5가)",
    "lat": 37.5839277,
    "lng": 127.0189896
  },
  {
    "name": "금영빌딩 개방화장실",
    "address": "서울특별시 성북구 보국문로 10, 부광빌딩 (정릉동)",
    "lat": 37.60538,
    "lng": 127.011583
  },
  {
    "name": "롯데리아 종암점 개방화장실",
    "address": "서울특별시 성북구 종암로 91(종암동)",
    "lat": 37.5983662,
    "lng": 127.0343768
  },
  {
    "name": "북악골프연습장",
    "address": "서울특별시 성북구 북악산로 537-14(정릉동)",
    "lat": 37.6024637,
    "lng": 126.9977082
  },
  {
    "name": "종암동새날도서관",
    "address": "서울특별시 성북구 종암로 98-8, 종암동주민센터 (종암동)",
    "lat": 37.5987916,
    "lng": 127.0348265
  },
  {
    "name": "월곡종합사회복지관",
    "address": "서울특별시 성북구 오패산로16길 23, 월곡종합사회복지관 (하월곡동)",
    "lat": 37.6088793,
    "lng": 127.0373083
  },
  {
    "name": "성북구마을사회적경제센터",
    "address": "서울특별시 성북구 종암로25길 29, 성북구마을사회적경제센터 (종암동)",
    "lat": 37.6000644,
    "lng": 127.0292444
  },
  {
    "name": "성북구공정무역센터",
    "address": "서울특별시 성북구 동소문로22길 33-8, 성북구 공정무역센터 (동선동1가)",
    "lat": 37.5915551,
    "lng": 127.0182487
  },
  {
    "name": "서울국유림관리소",
    "address": "서울특별시 성북구 화랑로18가길 30, 서울국유림관리소 (상월곡동)",
    "lat": 37.6043956,
    "lng": 127.0488931
  },
  {
    "name": "성북종합레포츠타운",
    "address": "서울특별시 성북구 한천로58길 307, 성북종합레포츠타운 (석관동)",
    "lat": 37.6101713,
    "lng": 127.0677795
  },
  {
    "name": "율곡약수터",
    "address": "서울특별시 도봉구 시루봉로23나길 37",
    "lat": 37.673,
    "lng": 127.0395
  },
  {
    "name": "국제배드민턴장",
    "address": "서울특별시 도봉구 도봉로163길 29",
    "lat": 37.67631,
    "lng": 127.0429
  },
  {
    "name": "힐사이드배드민턴장",
    "address": "서울특별시 도봉구 도봉로163길 30",
    "lat": 37.67653,
    "lng": 127.0431
  },
  {
    "name": "청심천배드민턴장",
    "address": "서울특별시 도봉구 노해로57길 94",
    "lat": 37.65516,
    "lng": 127.0346
  },
  {
    "name": "초안산근린공원",
    "address": "서울특별시 도봉구 해등로3길 48-11",
    "lat": 37.64747,
    "lng": 127.0413
  },
  {
    "name": "친환경나눔텃밭",
    "address": "서울특별시 도봉구 우이천로 394",
    "lat": 37.64997,
    "lng": 127.0212
  },
  {
    "name": "우림빌딩",
    "address": "서울특별시 도봉구 노해로63길 79",
    "lat": 37.65303,
    "lng": 127.0463
  },
  {
    "name": "신동아프라자",
    "address": "서울특별시 도봉구 방학로223",
    "lat": 37.66161,
    "lng": 127.0272
  },
  {
    "name": "하나빌딩",
    "address": "서울특별시 도봉구 노해로67길 10",
    "lat": 37.65223,
    "lng": 127.0496
  },
  {
    "name": "도봉월드",
    "address": "서울특별시 도봉구 마들로650",
    "lat": 37.66808,
    "lng": 127.0464
  },
  {
    "name": "삼환플라자",
    "address": "서울특별시 도봉구 도봉로575",
    "lat": 37.65635,
    "lng": 127.039
  },
  {
    "name": "대한반호프빌딩",
    "address": "서울특별시 도봉구 노해로67길 10",
    "lat": 37.65223,
    "lng": 127.0496
  },
  {
    "name": "대성빌딩",
    "address": "서울특별시 도봉구 노해로379",
    "lat": 37.6524,
    "lng": 127.0503
  },
  {
    "name": "다모아빌딩",
    "address": "서울특별시 도봉구 마들로11가길 12",
    "lat": 37.6528,
    "lng": 127.0489
  },
  {
    "name": "세정빌딩",
    "address": "서울특별시 도봉구 노해로69길 15",
    "lat": 37.65305,
    "lng": 127.0507
  },
  {
    "name": "동산빌딩",
    "address": "서울특별시 도봉구 마들로11길 25",
    "lat": 37.65397,
    "lng": 127.0517
  },
  {
    "name": "미륭프라자",
    "address": "서울특별시 도봉구 방학로196",
    "lat": 37.66225,
    "lng": 127.0304
  },
  {
    "name": "도봉산입구상가연합회",
    "address": "서울특별시 도봉구 도봉산길65-11",
    "lat": 37.6863,
    "lng": 127.0375
  },
  {
    "name": "새동네어울누리",
    "address": "서울특별시 도봉구 도봉산4길 28-3",
    "lat": 37.68881,
    "lng": 127.0427
  },
  {
    "name": "햇빛요양보호사교육원",
    "address": "서울특별시 도봉구 도봉로463-1",
    "lat": 37.64728,
    "lng": 127.0335
  },
  {
    "name": "신도봉시장",
    "address": "서울특별시 도봉구 도당로27길 60",
    "lat": 37.67005,
    "lng": 127.041
  },
  {
    "name": "한일빌딩",
    "address": "서울특별시 도봉구 도봉로152가길 102",
    "lat": 37.67408,
    "lng": 127.0448
  },
  {
    "name": "럭키프라자상가",
    "address": "서울특별시 도봉구 도봉로169길 31",
    "lat": 37.67991,
    "lng": 127.0439
  },
  {
    "name": "창동19단지종합상가",
    "address": "서울특별시 도봉구 노해로70길 46",
    "lat": 37.65025,
    "lng": 127.0516
  },
  {
    "name": "도봉제일주유소",
    "address": "서울특별시 도봉구 도봉로783",
    "lat": 37.67446,
    "lng": 127.044
  },
  {
    "name": "한영가스충전소",
    "address": "서울특별시 도봉구 도봉로627",
    "lat": 37.66056,
    "lng": 127.0415
  },
  {
    "name": "성민교회",
    "address": "서울특별시 도봉구 해등로26길 20-1",
    "lat": 37.65993,
    "lng": 127.0337
  },
  {
    "name": "극동유화㈜대안주유소",
    "address": "서울특별시 도봉구 마들로 574",
    "lat": 37.66155,
    "lng": 127.0473
  },
  {
    "name": "도봉산역(1호선) 화장실",
    "address": "서울특별시 도봉구 도봉로 948",
    "lat": 37.68902,
    "lng": 127.0458
  },
  {
    "name": "도봉역 화장실",
    "address": "서울특별시 도봉구 도봉로170길 2",
    "lat": 37.68038,
    "lng": 127.0457
  },
  {
    "name": "방학역 화장실",
    "address": "서울특별시 도봉구 도봉로150다길 3",
    "lat": 37.66634,
    "lng": 127.0444
  },
  {
    "name": "녹천역 화장실",
    "address": "서울특별시 도봉구 덕릉로 376",
    "lat": 37.64585,
    "lng": 127.0507
  },
  {
    "name": "창동역(4호선)",
    "address": "서울특별시 도봉구 삼양로 592",
    "lat": 37.6559,
    "lng": 127.0134
  },
  {
    "name": "쌍문역(4호선) 화장실",
    "address": "서울특별시 도봉구 도봉로 지하 486-1",
    "lat": 37.64885,
    "lng": 127.0349
  },
  {
    "name": "도봉산역(7호선) 화장실",
    "address": "서울특별시 도봉구 도봉로 964-40",
    "lat": 37.68913,
    "lng": 127.0464
  },
  {
    "name": "도봉산역(7호선) 화장실",
    "address": "서울특별시 도봉구 도봉로 964-40",
    "lat": 37.6891,
    "lng": 127.0464
  },
  {
    "name": "서울시설공단 청사 1층화장실",
    "address": "서울특별시 성동구 청계천로 540, 서울시설공단 1층 (마장동)",
    "lat": 37.571614,
    "lng": 127.0360402
  },
  {
    "name": "선릉 대림아크로텔",
    "address": "서울특별시 강남구 선릉로 524, 선릉대림아크로텔 (삼성동)",
    "lat": 37.5066550675,
    "lng": 127.0483861818
  },
  {
    "name": "한우리교회",
    "address": "서울특별시 강남구 강남대로54길 10, 교회 (도곡동)",
    "lat": 37.4880719975,
    "lng": 127.0335537818
  },
  {
    "name": "흥창빌딩",
    "address": "서울특별시 강남구 도산대로1길 24 (신사동)",
    "lat": 37.5182711939,
    "lng": 127.0199871285
  },
  {
    "name": "한우리 비전센타",
    "address": "서울특별시 강남구 강남대로54길 9 (도곡동)",
    "lat": 37.4884675893,
    "lng": 127.0333798275
  },
  {
    "name": "성수2가3동주민센터 화장실",
    "address": "서울특별시 성동구 광나루로2길 35",
    "lat": 37.54823,
    "lng": 127.05515
  },
  {
    "name": "왕십리도선동주민센터",
    "address": "서울특별시 성동구 마장로 141(상왕십리동)",
    "lat": 37.567881,
    "lng": 127.025529
  },
  {
    "name": "성동안심상가 화장실",
    "address": "서울특별시 성동구 성수일로12길 20",
    "lat": 37.54811,
    "lng": 127.0533
  },
  {
    "name": "원앙빌딩(한국마사회강남지점)",
    "address": "서울특별시 도산대로 529 (청담동)",
    "lat": 37.5250900837,
    "lng": 127.0513000316
  },
  {
    "name": "화천회관빌딩",
    "address": "서울특별시 영동대로 702 (청담동)",
    "lat": 37.52047964,
    "lng": 127.0575760814
  },
  {
    "name": "영광빌딩",
    "address": "서울특별시 강남구 언주로 333 (역삼동)",
    "lat": 37.4975740017,
    "lng": 127.044752977
  },
  {
    "name": "대성석유(주)동호주유소",
    "address": "서울특별시 강남구 봉은사로113길 51, GS칼텍스 동호점 (삼성동)",
    "lat": 37.5185133147,
    "lng": 127.0646763158
  },
  {
    "name": "역삼한스빌아파트상가",
    "address": "서울특별시 강남구 도곡로3길 26 (역삼동, 역삼한스빌아파트)",
    "lat": 37.4919829893,
    "lng": 127.0329559942
  },
  {
    "name": "실크캐슬",
    "address": "서울특별시 강남구 도곡로 313 (역삼동)",
    "lat": 37.4956487732,
    "lng": 127.0502498129
  },
  {
    "name": "동영문화센터",
    "address": "서울특별시 강남구 언주로 337, 동영문화센터 (역삼동)",
    "lat": 37.4979241922,
    "lng": 127.0443565917
  },
  {
    "name": "에이엔에이빌딩",
    "address": "서울특별시 강남구 논현로 653 (논현동)",
    "lat": 37.5122184281,
    "lng": 127.0312217813
  },
  {
    "name": "심스빌딩",
    "address": "서울특별시 강남구 테헤란로87길 39, 심스빌딩 (삼성동)",
    "lat": 37.5103399869,
    "lng": 127.0576427153
  },
  {
    "name": "청운교회",
    "address": "서울특별시 강남구 언주로65길 6, 청운교회 (역삼동)",
    "lat": 37.4956642373,
    "lng": 127.0452023603
  },
  {
    "name": "금호스포츠센터",
    "address": "서울특별시 성동구 금호로 20",
    "lat": 37.5455958,
    "lng": 127.0250663
  },
  {
    "name": "대현산체육관",
    "address": "서울특별시 성동구 독서당로63길 44",
    "lat": 37.5541597,
    "lng": 127.0299175
  },
  {
    "name": "대치노인복지센터",
    "address": "서울특별시 강남구 역삼로69길 22",
    "lat": 37.5,
    "lng": 127.0
  },
  {
    "name": "강남시니어플라자 공중화장실",
    "address": "서울특별시 강남구 봉은사로 332",
    "lat": 37.50995,
    "lng": 127.0431
  },
  {
    "name": "역삼노인복지센터",
    "address": "서울특별시 강남구 도곡로27길 27",
    "lat": 37.49463,
    "lng": 127.041792
  },
  {
    "name": "금호공원체육관",
    "address": "서울특별시 성동구 장터1길 20",
    "lat": 37.5495098,
    "lng": 127.0189938
  },
  {
    "name": "성동구민종합체육센터 화장실",
    "address": "서울특별시 성동구 왕십리로 89",
    "lat": 37.54565,
    "lng": 127.04442
  },
  {
    "name": "성동구립용답체육센터",
    "address": "서울특별시 성동구 천호대로78길 15-48",
    "lat": 37.561862,
    "lng": 127.056777
  },
  {
    "name": "마장국민체육센터",
    "address": "서울특별시 성동구 마조로11길 6",
    "lat": 37.562118,
    "lng": 127.040765
  },
  {
    "name": "성동구립도서관",
    "address": "서울특별시 성동구 고산자로 10길 9",
    "lat": 37.5592346,
    "lng": 127.0349497
  },
  {
    "name": "성동구립금호도서관",
    "address": "서울특별시 성동구 난계로 20, 금호작은도서관(금호동1가)",
    "lat": 37.5540653,
    "lng": 127.0249005
  },
  {
    "name": "성동구립용답도서관",
    "address": "서울특별시 성동구 용답중앙3길 10",
    "lat": 37.566684,
    "lng": 127.051332
  },
  {
    "name": "성동구립성수도서관(성수문화복지회관)",
    "address": "서울특별시 성동구 뚝섬로1길 43, 성수문화복지회관(성수동1가)",
    "lat": 37.545368,
    "lng": 127.047063
  },
  {
    "name": "성동구립청계도서관(왕십리도선동복합청사)",
    "address": "서울특별시 성동구 마장로141",
    "lat": 37.5678798,
    "lng": 127.0254533
  },
  {
    "name": "성동문화회관",
    "address": "서울특별시 성동구 행당동 왕십리로 281",
    "lat": 37.55931,
    "lng": 127.0361
  },
  {
    "name": "성수문화복지회관",
    "address": "서울특별시 성동구 뚝섬로1길 43",
    "lat": 37.545574,
    "lng": 127.046936
  },
  {
    "name": "4차산업혁명체험센터",
    "address": "서울특별시 성동구 살곶이길 327",
    "lat": 37.5546755,
    "lng": 127.0404499
  },
  {
    "name": "독서당인문아카데미센터",
    "address": "서울특별시 성동구 금호로30",
    "lat": 37.546121,
    "lng": 127.0252935
  },
  {
    "name": "세곡동공중화장실(기존)",
    "address": "서울특별시 강남구 헌릉로 649",
    "lat": 37.46519,
    "lng": 127.10996
  },
  {
    "name": "세곡동공중화장실(신설)",
    "address": "서울특별시 강남구 헌릉로 621",
    "lat": 37.46509,
    "lng": 127.10731
  },
  {
    "name": "압구정동주민센터",
    "address": "서울특별시 강남구 압구정로33길 48",
    "lat": 37.530708,
    "lng": 127.030616
  },
  {
    "name": "강남운전면허시험장",
    "address": "서울특별시 강남구 테헤란로114길 23",
    "lat": 37.50859,
    "lng": 127.06743
  },
  {
    "name": "개포3동주민센터",
    "address": "서울특별시 강남구 개포로 615, 석탑프라자, 개포3동주민센터 (개포동)",
    "lat": 37.492167,
    "lng": 127.073663
  },
  {
    "name": "강남구민체육관",
    "address": "서울특별시 강남구 개포로28길 47(개포동)",
    "lat": 37.483391,
    "lng": 127.047097
  },
  {
    "name": "국민연금공단",
    "address": "서울특별시 강남구 도산대로 128",
    "lat": 37.498299,
    "lng": 127.030209
  },
  {
    "name": "삼성세무서",
    "address": "서울특별시 강남구 테헤란로 114, 5층,6층",
    "lat": 37.5234985,
    "lng": 127.0359705
  },
  {
    "name": "압구정노인복지센터",
    "address": "서울특별시 강남구 도산대로53길 5(신사동)",
    "lat": 37.486,
    "lng": 127.04223
  },
  {
    "name": "매봉산 실내배드민턴장",
    "address": "서울특별시 강남구 남부순환로 2711",
    "lat": 37.508236,
    "lng": 127.026921
  },
  {
    "name": "논현초교 공영노외주차장",
    "address": "서울특별시 강남대로120길 33",
    "lat": 37.508236,
    "lng": 127.026921
  },
  {
    "name": "강남치매안심센터 공영노외",
    "address": "서울특별시 선릉로108길 27",
    "lat": 37.510183,
    "lng": 127.046539
  },
  {
    "name": "포이초교 공영노외주차장",
    "address": "서울특별시 개포로22길87",
    "lat": 37.475052,
    "lng": 127.051405
  },
  {
    "name": "언주초교 공영노외주차장",
    "address": "서울특별시 남부순환로363길 19",
    "lat": 37.486921,
    "lng": 127.037679
  },
  {
    "name": "도곡초교 공영노외주차장",
    "address": "서울특별시 선릉로64길 33",
    "lat": 37.498564,
    "lng": 127.054862
  },
  {
    "name": "대청역 공영노외주차장",
    "address": "서울특별시 개포로623-1",
    "lat": 37.493966,
    "lng": 127.087246
  },
  {
    "name": "탄천2호 공영노외주차장",
    "address": "서울특별시 양재대로55길 28",
    "lat": 37.494979,
    "lng": 127.079304
  },
  {
    "name": "탄천주차장",
    "address": "서울특별시 강남구 역삼로107길 20-28",
    "lat": 37.512718,
    "lng": 127.067107
  },
  {
    "name": "탄천주차장",
    "address": "서울특별시 강남구 역삼로107길 20-28",
    "lat": 37.516085,
    "lng": 127.066572
  },
  {
    "name": "탄천주차장",
    "address": "서울특별시 강남구 역삼로107길 20-28",
    "lat": 37.507644,
    "lng": 127.067886
  },
  {
    "name": "탄천주차장",
    "address": "서울특별시 강남구 역삼로107길 20-28",
    "lat": 37.50438,
    "lng": 127.0678
  },
  {
    "name": "탄천주차장",
    "address": "서울특별시 강남구 역삼로107길 20-28",
    "lat": 37.50438,
    "lng": 127.0678
  },
  {
    "name": "견인보관소",
    "address": "서울특별시 강남구 역삼로107길 20-28",
    "lat": 37.50438,
    "lng": 127.0678
  },
  {
    "name": "강남소방서",
    "address": "서울특별시 강남구 테헤란로 629",
    "lat": 37.510282,
    "lng": 127.066822
  },
  {
    "name": "영동119안전센터",
    "address": "서울특별시 강남구 도산대로 320",
    "lat": 37.522132,
    "lng": 127.036926
  },
  {
    "name": "역삼119안전센터",
    "address": "서울특별시 강남구 역삼로 236",
    "lat": 37.497098,
    "lng": 127.042436
  },
  {
    "name": "수서119안전센터",
    "address": "서울특별시 강남구 광평로31길 6",
    "lat": 37.484893,
    "lng": 127.092833
  },
  {
    "name": "개포119안전센터",
    "address": "서울특별시 강남구 논현로10길 19",
    "lat": 37.474714,
    "lng": 127.04988
  },
  {
    "name": "세곡119안전센터",
    "address": "서울특별시 강남구 밤고개로 268",
    "lat": 37.470679,
    "lng": 127.107421
  },
  {
    "name": "논현노인종합복지관",
    "address": "서울특별시 강남구 강남대로128길 59",
    "lat": 37.3,
    "lng": 127.01
  },
  {
    "name": "미미위강남세움센터",
    "address": "서울특별시 강남구 광평로60길 22(수서동)",
    "lat": 37.4871,
    "lng": 127.107
  },
  {
    "name": "신사문화센터",
    "address": "서울특별시 강남구 압구정로 128",
    "lat": 37.524066,
    "lng": 127.022651
  },
  {
    "name": "논현2문화센터",
    "address": "서울특별시 강남구 학동로 43길 17",
    "lat": 37.517352,
    "lng": 127.037157
  },
  {
    "name": "대치1문화센터",
    "address": "서울특별시 강남구 남부순환로 391길 19",
    "lat": 37.493229,
    "lng": 127.056723
  },
  {
    "name": "대치4문화센터",
    "address": "서울특별시 강남구 도곡로 77길 23",
    "lat": 37.499758,
    "lng": 127.057893
  },
  {
    "name": "역삼1문화센터",
    "address": "서울특별시 강남구 역삼로 7길 16",
    "lat": 37.495314,
    "lng": 127.033222
  },
  {
    "name": "역삼2문화센터",
    "address": "서울특별시 강남구 도곡로 43길 25",
    "lat": 37.496,
    "lng": 127.046807
  },
  {
    "name": "자곡문화센터",
    "address": "서울특별시 강남구 자곡로 100",
    "lat": 37.471725,
    "lng": 127.094485
  },
  {
    "name": "푸른솔도서관",
    "address": "서울특별시 강남구 테헤란로 8길 36",
    "lat": 37.496382,
    "lng": 127.032015
  },
  {
    "name": "힐링센터(개포)",
    "address": "서울특별시 강남구 삼성로 3길 39",
    "lat": 37.483814,
    "lng": 127.064626
  },
  {
    "name": "일원1동주민센터",
    "address": "서울특별시 강남구 개포로 615, 석탑프라자, 개포3동주민센터 (개포동)",
    "lat": 37.49,
    "lng": 127.08
  },
  {
    "name": "열린금호교육문화관",
    "address": "서울특별시 성동구 무수막길 69",
    "lat": 37.5525373,
    "lng": 127.0196603
  },
  {
    "name": "서울숲복합문화체육센터",
    "address": "서울특별시 성동구 왕십리로11길 19",
    "lat": 37.5495818,
    "lng": 127.041097
  },
  {
    "name": "동부수도사업소 화장실",
    "address": "서울특별시 성동구 고산자로10길 13",
    "lat": 37.5592312,
    "lng": 127.0354364
  },
  {
    "name": "왕십리문화공원",
    "address": "서울특별시 성동구 도선동 35-2",
    "lat": 37.5618,
    "lng": 127.0352
  },
  {
    "name": "도선공영주차장",
    "address": "서울특별시 성동구 무학로8길 8",
    "lat": 37.5656,
    "lng": 127.0318
  },
  {
    "name": "무학봉근린공원",
    "address": "서울특별시 성동구 왕십리로31길 29-1",
    "lat": 37.562,
    "lng": 127.0272
  },
  {
    "name": "자전거체험학습장",
    "address": "서울특별시 성동구 살곶이길 115",
    "lat": 37.5659,
    "lng": 127.0472
  },
  {
    "name": "마장기사식당앞",
    "address": "서울특별시 성동구 마장로42길 25",
    "lat": 37.5656,
    "lng": 127.0468
  },
  {
    "name": "동마장어린이공원",
    "address": "서울특별시 성동구 마장동 780-1",
    "lat": 37.5663,
    "lng": 127.0457
  },
  {
    "name": "마장축산물 한전뒤",
    "address": "서울특별시 성동구 마장동 494",
    "lat": 37.5686,
    "lng": 127.0391
  },
  {
    "name": "마장축산물시장",
    "address": "서울특별시 성동구 살곶이길 40",
    "lat": 37.5711,
    "lng": 127.0411
  },
  {
    "name": "살곶이 진입부",
    "address": "서울특별시 성동구 살곶이길 259",
    "lat": 37.5544,
    "lng": 127.0479
  },
  {
    "name": "살곶이 진출부",
    "address": "서울특별시 성동구 살곶이길 235",
    "lat": 37.5557,
    "lng": 127.0502
  },
  {
    "name": "살곶이 궁터장",
    "address": "서울특별시 성동구 살곶이길 313",
    "lat": 37.5537,
    "lng": 127.042
  },
  {
    "name": "한양대 앞",
    "address": "서울특별시 성동구 왕십리로 252",
    "lat": 37.5582,
    "lng": 127.0395
  },
  {
    "name": "살곶이체육공원",
    "address": "서울특별시 성동구 중랑천서자전거길 209",
    "lat": 37.554,
    "lng": 127.0504
  },
  {
    "name": "소월아트홀광장",
    "address": "서울특별시 성동구 왕십리로 281",
    "lat": 37.5591,
    "lng": 127.0358
  },
  {
    "name": "행당6구역근린공원",
    "address": "서울특별시 성동구 고산자로2길 77",
    "lat": 37.557,
    "lng": 127.039
  },
  {
    "name": "대림공원(논골새싹)",
    "address": "서울특별시 성동구 난계로 56",
    "lat": 37.5573,
    "lng": 127.025
  },
  {
    "name": "응봉암벽공원",
    "address": "서울특별시 성동구 독서당로60길 13-1",
    "lat": 37.5486,
    "lng": 127.0309
  },
  {
    "name": "응봉개나리어린이공원",
    "address": "서울특별시 성동구 독서당로62가길 66",
    "lat": 37.5482,
    "lng": 127.0318
  },
  {
    "name": "응봉 자전거대여소",
    "address": "서울특별시 성동구 고산자로 125-18",
    "lat": 37.551,
    "lng": 127.0348
  },
  {
    "name": "응봉체육공원",
    "address": "서울특별시 성동구 중랑천서자전거길 97",
    "lat": 37.5521,
    "lng": 127.0386
  },
  {
    "name": "응봉테니스장",
    "address": "서울특별시 성동구 중랑천서자전거길 85",
    "lat": 37.5512,
    "lng": 127.0369
  },
  {
    "name": "대현산관리사무소",
    "address": "서울특별시 성동구 금호로 100",
    "lat": 37.5539,
    "lng": 127.0273
  },
  {
    "name": "대현산공원(간)",
    "address": "서울특별시 성동구 금호동1가 산 37-1",
    "lat": 37.5541,
    "lng": 127.0284
  },
  {
    "name": "독서당공원",
    "address": "서울특별시 성동구 금호동1가 산 37-7",
    "lat": 37.5509,
    "lng": 127.0292
  },
  {
    "name": "금호정",
    "address": "서울특별시 성동구 금호산15길 15",
    "lat": 37.5517,
    "lng": 127.0172
  },
  {
    "name": "금호산(부대입구)",
    "address": "서울특별시 성동구 금호산15길 15",
    "lat": 37.5532,
    "lng": 127.0172
  },
  {
    "name": "금남시장뒤",
    "address": "서울특별시 성동구 금호산2가길 1",
    "lat": 37.5489,
    "lng": 127.0224
  },
  {
    "name": "금호3가복지관(경로당)",
    "address": "서울특별시 성동구 금호산2길 16",
    "lat": 37.5488,
    "lng": 127.0214
  },
  {
    "name": "금호4가(얼음가게)",
    "address": "서울특별시 성동구 장터길 42",
    "lat": 37.5482,
    "lng": 127.0205
  },
  {
    "name": "달맞이봉(공원)",
    "address": "서울특별시 성동구 독서당로44길 25",
    "lat": 37.5452,
    "lng": 127.0204
  },
  {
    "name": "응봉산팔각정",
    "address": "서울특별시 성동구 독서당로 362",
    "lat": 37.5481,
    "lng": 127.0296
  },
  {
    "name": "용비쉼터",
    "address": "서울특별시 성동구 중랑천서자전거길 5",
    "lat": 37.5463,
    "lng": 127.0305
  },
  {
    "name": "매봉산 지하수 옆",
    "address": "서울특별시 성동구 동호로5길 207",
    "lat": 37.5458,
    "lng": 127.0087
  },
  {
    "name": "매봉산 숲속도서관",
    "address": "서울특별시 성동구 매봉길 49-29",
    "lat": 37.5457,
    "lng": 127.0109
  },
  {
    "name": "송정제방길",
    "address": "서울특별시 성동구 가람길 46",
    "lat": 37.5518,
    "lng": 127.0491
  },
  {
    "name": "성삼공원",
    "address": "서울특별시 성동구 성수이로18길 25-1",
    "lat": 37.5422,
    "lng": 127.06
  },
  {
    "name": "성수근린공원",
    "address": "서울특별시 성동구 성수동2가 302-25",
    "lat": 37.5445,
    "lng": 127.0523
  },
  {
    "name": "새말빗물펌프장",
    "address": "서울특별시 성동구 송정동 93",
    "lat": 37.5559,
    "lng": 127.0697
  },
  {
    "name": "송정농구장",
    "address": "서울특별시 성동구 중랑천동자전거길 366",
    "lat": 37.5527,
    "lng": 127.0665
  },
  {
    "name": "성동소방서",
    "address": "서울특별시 성동구살곶이길 331(행당동)",
    "lat": 37.5538359,
    "lng": 127.039505
  },
  {
    "name": "성수119안전센터",
    "address": "서울특별시 성동구뚝섬로 452(성수2가)",
    "lat": 37.537151,
    "lng": 127.0606567
  },
  {
    "name": "왕십리119안전센터",
    "address": "서울특별시 성동구고산자로 249 (도선동)",
    "lat": 37.5620324,
    "lng": 127.0354687
  },
  {
    "name": "금호119안전센터",
    "address": "서울특별시 성동구난계로 19 (금호1가)",
    "lat": 37.5540023,
    "lng": 127.0243615
  },
  {
    "name": "성동구보건소",
    "address": "서울특별시 성동구 마장로23길 10",
    "lat": 37.567053,
    "lng": 127.033199
  },
  {
    "name": "송정제방",
    "address": "서울특별시 성동구 송정동 75-14",
    "lat": 37.5491,
    "lng": 127.0595
  },
  {
    "name": "중량물재생센터 앞",
    "address": "서울특별시 성동구 송정동 73-37",
    "lat": 37.5508,
    "lng": 127.0611
  },
  {
    "name": "용답휴식공원(신답역)",
    "address": "서울특별시 성동구 천호대로 232",
    "lat": 37.5702,
    "lng": 127.0472
  },
  {
    "name": "용답꽃공원",
    "address": "서울특별시 성동구 천호대로78길 42",
    "lat": 37.5605,
    "lng": 127.0549
  },
  {
    "name": "용답어린이공원(매매센터)",
    "address": "서울특별시 성동구 용답동 234-1",
    "lat": 37.5606,
    "lng": 127.0644
  },
  {
    "name": "서울숲 방문자센터 화장실",
    "address": "서울특별시 성동구 뚝섬로 273",
    "lat": 37.543,
    "lng": 127.0416
  },
  {
    "name": "서울숲 수변휴게실 화장실",
    "address": "서울특별시 성동구 뚝섬로 273",
    "lat": 37.5445,
    "lng": 127.0377
  },
  {
    "name": "서울숲 체육공원(시계탑) 화장실",
    "address": "서울특별시 성동구 뚝섬로 273",
    "lat": 37.5461,
    "lng": 127.0414
  },
  {
    "name": "서울숲 습지생태원 화장실",
    "address": "서울특별시 성동구 뚝섬로 273",
    "lat": 37.5484,
    "lng": 127.0391
  },
  {
    "name": "서울숲 곤충식물원 화장실",
    "address": "서울특별시 성동구 뚝섬로 273",
    "lat": 37.5414,
    "lng": 127.0399
  },
  {
    "name": "서울숲 생태숲 화장실",
    "address": "서울특별시 성동구 뚝섬로 273",
    "lat": 37.5427,
    "lng": 127.0349
  },
  {
    "name": "서울숲 주차장 화장실",
    "address": "서울특별시 성동구 뚝섬로 273",
    "lat": 37.5415,
    "lng": 127.0435
  },
  {
    "name": "서울숲 숲속놀이터 화장실",
    "address": "서울특별시 성동구 뚝섬로 273",
    "lat": 37.5432,
    "lng": 127.0399
  },
  {
    "name": "서울숲 방문자센터(2층) 화장실",
    "address": "서울특별시 성동구 뚝섬로 273",
    "lat": 37.5431,
    "lng": 127.0419
  },
  {
    "name": "서울숲 방문자센터(지하) 화장실",
    "address": "서울특별시 성동구 뚝섬로 273",
    "lat": 37.5431,
    "lng": 127.0419
  },
  {
    "name": "서울숲 커뮤니티센터(1층) 화장실",
    "address": "서울특별시 성동구 뚝섬로 273",
    "lat": 37.5447,
    "lng": 127.0349
  },
  {
    "name": "서울숲 커뮤니티센터(2층) 화장실",
    "address": "서울특별시 성동구 뚝섬로 273",
    "lat": 37.5447,
    "lng": 127.0349
  },
  {
    "name": "서울숲 곤충식물원(내부) 화장실",
    "address": "서울특별시 성동구 뚝섬로 273",
    "lat": 37.5414,
    "lng": 127.0392
  },
  {
    "name": "청계천 1호 화장실",
    "address": "서울특별시 성동구 마장로35길 106",
    "lat": 37.5691534,
    "lng": 127.0454753
  },
  {
    "name": "청계천 3호 화장실",
    "address": "서울특별시 성동구 사근동길 65",
    "lat": 37.5622774,
    "lng": 127.0493442
  },
  {
    "name": "청계천 4호 화장실",
    "address": "서울특별시 성동구 살곶이길 7",
    "lat": 37.5718989,
    "lng": 127.0387264
  },
  {
    "name": "서울특별시 성동구청사",
    "address": "서울특별시 성동구 고산자로 270",
    "lat": 37.563319,
    "lng": 127.03686
  },
  {
    "name": "성동종합사회복지관",
    "address": "서울특별시 성동구 청계천호 506",
    "lat": 37.5531163,
    "lng": 126.8331774
  },
  {
    "name": "옥수종합사회복지관",
    "address": "서울특별시 성동구 한림말길 16-5",
    "lat": 37.5371208,
    "lng": 127.0078224
  },
  {
    "name": "성수종합사회복지관",
    "address": "서울특별시 성동구 뚝섬로1길 43",
    "lat": 37.5453873,
    "lng": 127.046953
  },
  {
    "name": "마장동주민센터",
    "address": "서울특별시 성동구 마장로42길 11",
    "lat": 37.578719,
    "lng": 126.8136575
  },
  {
    "name": "응봉동주민센터 화장실",
    "address": "서울특별시 성동구 독서당로 424",
    "lat": 37.553194,
    "lng": 127.03346
  },
  {
    "name": "성수1가제1동주민센터",
    "address": "서울특별시 성동구 뚝섬로3길 18",
    "lat": 37.5421487,
    "lng": 127.0496209
  },
  {
    "name": "성수1가제2동공공복합청사(동주민센터)",
    "address": "서울특별시 성동구 왕십리로5길 3",
    "lat": 37.54648,
    "lng": 127.044215
  },
  {
    "name": "송정동주민센터",
    "address": "서울특별시 성동구 동일로43길 13",
    "lat": 37.554834,
    "lng": 127.069575
  },
  {
    "name": "옥수동주민센터",
    "address": "서울특별시 성동구 독서당로 203, 옥수동 공공복합청사 (옥수동)",
    "lat": 37.543565,
    "lng": 127.013418
  },
  {
    "name": "왕십리제2동주민센터",
    "address": "서울특별시 성동구 무학봉15길 6",
    "lat": 37.5617316,
    "lng": 127.0311833
  },
  {
    "name": "행당제1동주민센터",
    "address": "서울특별시 성동구 고산자로 10길 18",
    "lat": 37.55857,
    "lng": 127.03607
  },
  {
    "name": "대림역 화장실(1)",
    "address": "서울특별시 영등포구 도림로 지하137",
    "lat": 37.492981,
    "lng": 126.893984
  },
  {
    "name": "대림정보문화도서관 1층화장실",
    "address": "서울특별시 영등포구 도신로 27, 대림정보문화도서관 (대림동)",
    "lat": 35.18848,
    "lng": 128.9904
  },
  {
    "name": "삼영연립 공중화장실",
    "address": "서울특별시 용산구 한강대로39길 21 (한강로2가, 삼영연립주택)",
    "lat": 37.53102869,
    "lng": 126.9678692
  },
  {
    "name": "삼각지차고 옆 공중화장실",
    "address": "서울특별시 용산구 백범로99가길 60",
    "lat": 37.53393056,
    "lng": 126.9703299
  },
  {
    "name": "후암4 공중화장실",
    "address": "서울특별시 용산구 한강대로104길 77",
    "lat": 37.55042378,
    "lng": 126.976134
  },
  {
    "name": "이태원3 공중화장실",
    "address": "서울특별시 용산구 이태원로164-1",
    "lat": 37.53407459,
    "lng": 126.992243
  },
  {
    "name": "이태원2 공중화장실",
    "address": "서울특별시 용산구 소월로38가길 8",
    "lat": 37.54312768,
    "lng": 126.990189
  },
  {
    "name": "이태원1 공중화장실",
    "address": "서울특별시 용산구 녹사평대로40길 56",
    "lat": 37.53431939,
    "lng": 126.988845
  },
  {
    "name": "신계동 공중화장실",
    "address": "서울특별시 용산구 한강로3가 2-1",
    "lat": 37.533821,
    "lng": 126.963396
  },
  {
    "name": "철길담장 옆 공중화장실",
    "address": "서울특별시 용산구 한강로2가 2-341",
    "lat": 37.531676,
    "lng": 126.968679
  },
  {
    "name": "이촌로 공중화장실",
    "address": "서울특별시 용산구 이촌로 121-1",
    "lat": 37.52306544,
    "lng": 126.9612119
  },
  {
    "name": "신길역 화장실",
    "address": "서울특별시 영등포구 경인로114가길 지하9",
    "lat": 37.517346,
    "lng": 126.914221
  },
  {
    "name": "신풍역 화장실(2)",
    "address": "서울특별시 영등포구 신풍로 지하27",
    "lat": 37.50013,
    "lng": 126.90678
  },
  {
    "name": "양평역 화장실(1)",
    "address": "서울특별시 영등포구 양산로 지하21",
    "lat": 37.509109,
    "lng": 127.049088
  },
  {
    "name": "영등포시장역 화장실(1)",
    "address": "서울특별시 영등포구 양산로 지하200",
    "lat": 37.521638,
    "lng": 126.902798
  },
  {
    "name": "갈현근린공원 공중화장실",
    "address": "서울특별시 은평구 진관1로 82",
    "lat": 37.630919,
    "lng": 126.92786
  },
  {
    "name": "박석어린이공원 공중화장실",
    "address": "서울특별시 은평구 통일로89길 18-14",
    "lat": 32.625075,
    "lng": 126.918434
  },
  {
    "name": "새장골어린이공원 공중화장실",
    "address": "서울특별시 은평구 연서로37가길 10-12",
    "lat": 37.625759,
    "lng": 126.926195
  },
  {
    "name": "갈곡리어린이공원 공중화장실",
    "address": "서울특별시 은평구 갈현로41길 7",
    "lat": 37.624165,
    "lng": 126.916421
  },
  {
    "name": "서갈현어린이공원 공중화장실",
    "address": "서울특별시 은평구 갈현로35길 12-8",
    "lat": 37.621366,
    "lng": 126.915763
  },
  {
    "name": "불광사입구 공중화장실",
    "address": "서울특별시 은평구 불광로18길 43",
    "lat": 37.623101,
    "lng": 126.936014
  },
  {
    "name": "좌월어린이공원 공중화장실",
    "address": "서울특별시 은평구 갈현로25길 11-8",
    "lat": 37.617424,
    "lng": 126.913177
  },
  {
    "name": "대조어린이공원 공중화장실",
    "address": "서울특별시 은평구 연서로22길 9-30",
    "lat": 37.615254,
    "lng": 126.919636
  },
  {
    "name": "길마어린이공원 공중화장실",
    "address": "서울특별시 은평구 연서로21길 15",
    "lat": 37.614783,
    "lng": 126.915684
  },
  {
    "name": "장미약수 공중화장실",
    "address": "서울특별시 은평구 진흥로 294, 장미약수 공중화장실 (녹번동)",
    "lat": 37.610139,
    "lng": 126.942749
  },
  {
    "name": "장미테니스공원 공중화장실",
    "address": "서울특별시 은평구 진흥로 300, 장미테니스공원 공중화장실 (녹번동)",
    "lat": 37.6107,
    "lng": 126.940438
  },
  {
    "name": "구현초마을마당 공중화장실",
    "address": "서울특별시 은평구 갈현로15길 45, 구현초마을마당 공중화장실 (구산동)",
    "lat": 37.609426,
    "lng": 126.906664
  },
  {
    "name": "역말어린이공원 공중화장실",
    "address": "서울특별시 은평구 갈현로14길 32",
    "lat": 37.606884,
    "lng": 126.91426
  },
  {
    "name": "연서어린이공원 공중화장실",
    "address": "서울특별시 은평구 연서로6길 8-1",
    "lat": 37.604142,
    "lng": 126.916619
  },
  {
    "name": "새록어린이공원 공중화장실",
    "address": "서울특별시 은평구 은평로13길 35",
    "lat": 37.603921,
    "lng": 126.923826
  },
  {
    "name": "녹번서근린공원 공중화장실",
    "address": "서울특별시 은평구 녹번로 19",
    "lat": 37.604008,
    "lng": 126.92753
  },
  {
    "name": "역마을어린이공원 공중화장실",
    "address": "서울특별시 은평구 진흥로1길 9",
    "lat": 37.601162,
    "lng": 126.918668
  },
  {
    "name": "응암어린이공원 공중화장실",
    "address": "서울특별시 은평구 은평로11길 10",
    "lat": 37.601724,
    "lng": 126.923553
  },
  {
    "name": "불광천(응암) 공중화장실",
    "address": "서울특별시 은평구 증산로 444, 불광천(응암) 공중 화장실 (응암동)",
    "lat": 37.595932,
    "lng": 126.915071
  },
  {
    "name": "포수동어린이공원 공중화장실",
    "address": "서울특별시 은평구 은평로8길 28",
    "lat": 37.598061,
    "lng": 126.919478
  },
  {
    "name": "신흥어린이공원 공중화장실",
    "address": "서울특별시 은평구 증산로21길 25",
    "lat": 37.595944,
    "lng": 126.911933
  },
  {
    "name": "참다래어린이공원 공중화장실",
    "address": "서울특별시 은평구 응암로25길 8",
    "lat": 37.595292,
    "lng": 126.917337
  },
  {
    "name": "불광천(신응교) 공중화장실",
    "address": "서울특별시 은평구 증산로 410, 불광천(신응교) 공중 화장실 (응암동)",
    "lat": 37.595935,
    "lng": 126.915078
  },
  {
    "name": "백련근린공원 공중화장실",
    "address": "서울특별시 은평구 백련산로4길 26",
    "lat": 37.564235,
    "lng": 126.926159
  },
  {
    "name": "분토골어린이공원 공중화장실",
    "address": "서울특별시 은평구 증산로11길 5",
    "lat": 37.586824,
    "lng": 126.911897
  },
  {
    "name": "생활체육광장 공중화장실",
    "address": "서울특별시 은평구 증산로5길 35-28, 생활체육광장  공중화장실 (증산동)",
    "lat": 37.585095,
    "lng": 126.90278
  },
  {
    "name": "시루뫼어린이공원 공중화장실",
    "address": "서울특별시 은평구 증산로5길 13",
    "lat": 37.582889,
    "lng": 126.906541
  },
  {
    "name": "등기소 임시주차장 공중화장실",
    "address": "서울특별시 은평구 백련산로 178",
    "lat": 37.600268,
    "lng": 126.927119
  },
  {
    "name": "진관체육광장 화장실",
    "address": "서울특별시 은평구 갈현로47길 42-19, 진관체육광장 공중화장실 (진관동)",
    "lat": 37.630417,
    "lng": 126.915628
  },
  {
    "name": "탑골생태공원 화장실",
    "address": "서울특별시 은평구 통일로 1079-26",
    "lat": 37.638174,
    "lng": 126.913802
  },
  {
    "name": "구파발 만남의광장 화장실",
    "address": "서울특별시 은평구 진관2로 15-30",
    "lat": 37.637231,
    "lng": 126.919112
  },
  {
    "name": "기자촌근린공원 화장실",
    "address": "서울특별시 은평구 연서로46길 50",
    "lat": 37.63354,
    "lng": 126.987992
  },
  {
    "name": "앵봉산생태놀이터 화장실",
    "address": "서울특별시 은평구 서오릉로 278, 앵봉산 생태놀이터 공중화장실 (갈현동)",
    "lat": 37.619322,
    "lng": 126.906706
  },
  {
    "name": "진관근린공원 게이트볼장 화장실",
    "address": "서울특별시 은평구 진관4로 78-31, 진관근린공원 게이트볼장 공중화장실 (진관동)",
    "lat": 37.644758,
    "lng": 126.980776
  },
  {
    "name": "선림사 개방화장실",
    "address": "서울특별시 은평구 연서로44길 51",
    "lat": 37.627321,
    "lng": 126.936936
  },
  {
    "name": "불광근린공원 화장실",
    "address": "서울특별시 은평구 불광로5가길 9-14",
    "lat": 37.61623,
    "lng": 126.930098
  },
  {
    "name": "봉산 수국사지구 공중화장실",
    "address": "서울특별시 은평구 서오릉로21길 34-31, 봉산 수국사지구 공중 화장실 (구산동)",
    "lat": 37.6149,
    "lng": 126.901809
  },
  {
    "name": "봉산 수국사 공중화장실",
    "address": "서울특별시 은평구 서오릉로23길 8-5",
    "lat": 37.615648,
    "lng": 126.90527
  },
  {
    "name": "구산역 화장실",
    "address": "서울특별시 은평구 구산동 1 구산역",
    "lat": 37.611025,
    "lng": 126.915399
  },
  {
    "name": "새절역 화장실",
    "address": "서울특별시 은평구 신사동 337-5 새절역",
    "lat": 37.591014,
    "lng": 126.911393
  },
  {
    "name": "증산역 화장실",
    "address": "서울특별시 은평구 증산동 199-8 증산역",
    "lat": 37.583933,
    "lng": 126.907497
  },
  {
    "name": "디지털미디어시티역(경의중앙선) 화장실",
    "address": "서울특별시 은평구 수색동 37-36 디지털미디어시티역",
    "lat": 37.577964,
    "lng": 126.898232
  },
  {
    "name": "디지털미디어시티역(6) 화장실",
    "address": "서울특별시 은평구 수색동 37-36 디지털미디어시티역",
    "lat": 37.577964,
    "lng": 126.898232
  },
  {
    "name": "구파발역 광역환승센터 화장실",
    "address": "서울특별시 은평구 진관2로 15-4",
    "lat": 37.638118,
    "lng": 126.919222
  },
  {
    "name": "서부주유소 화장실",
    "address": "서울특별시 은평구 응암로 210",
    "lat": 37.590707,
    "lng": 126.917587
  },
  {
    "name": "은평 공영차고지 화장실 2",
    "address": "서울특별시 은평구 수색로24길 19",
    "lat": 37.591761,
    "lng": 126.883685
  },
  {
    "name": "국민건강보험 은평지사 화장실",
    "address": "서울특별시 은평구 통일로71길 16",
    "lat": 37.613444,
    "lng": 126.92606
  },
  {
    "name": "지체장애인협회 지회 화장실",
    "address": "서울특별시 은평구 가좌로 276-9 (신사동)",
    "lat": 37.593828,
    "lng": 126.913225
  },
  {
    "name": "앵봉산가족캠핑장 화장실",
    "address": "서울특별시 은평구 통일로 1055, 앵봉산 가족캠핑장 공중화장실 (진관동)",
    "lat": 37.63591,
    "lng": 126.914105
  },
  {
    "name": "봉산 편백숲 공중화장실",
    "address": "서울특별시 은평구 은평터널로9가길 9-13, 봉산 편백숲 공중화장실 (신사동)",
    "lat": 37.595089,
    "lng": 126.901799
  },
  {
    "name": "인정병원 화장실",
    "address": "서울특별시 은평구 응암로 164",
    "lat": 37.586558,
    "lng": 126.916559
  },
  {
    "name": "서울특별시 은평병원 화장실",
    "address": "서울특별시 은평구 백련산로 90",
    "lat": 37.59438,
    "lng": 126.9233
  },
  {
    "name": "세광교회 개방화장실",
    "address": "서울특별시 은평구 갈현로 192",
    "lat": 37.614658,
    "lng": 126.912928
  },
  {
    "name": "맥도날드 연신내점 개방화장실",
    "address": "서울특별시 은평구 연서로 213",
    "lat": 37.617631,
    "lng": 126.919263
  },
  {
    "name": "보광빌딩 개방화장실",
    "address": "서울특별시 은평구 통일로 730",
    "lat": 37.610785,
    "lng": 126.930047
  },
  {
    "name": "한화생명빌딩 개방화장실",
    "address": "서울특별시 은평구 통일로 742",
    "lat": 37.611774,
    "lng": 126.92932
  },
  {
    "name": "연신내메디컬센터 개방화장실",
    "address": "서울특별시 은평구 연서로 246",
    "lat": 37.619089,
    "lng": 126.922595
  },
  {
    "name": "연서시장 개방화장실",
    "address": "서울특별시 은평구 통일로 850",
    "lat": 37.619266,
    "lng": 126.921819
  },
  {
    "name": "경우회관 개방화장실",
    "address": "서울특별시 은평구 응암로 357",
    "lat": 37.603106,
    "lng": 126.922298
  },
  {
    "name": "은경빌딩 개방화장실",
    "address": "서울특별시 은평구 은평로 136",
    "lat": 37.600244,
    "lng": 126.92305
  },
  {
    "name": "증산종합시장 개방화장실",
    "address": "서울특별시 은평구 증산로3길 12",
    "lat": 37.581418,
    "lng": 126.905085
  },
  {
    "name": "서부동산교회 개방화장실",
    "address": "서울특별시 은평구 증산서길 53-9",
    "lat": 37.58172,
    "lng": 126.904401
  },
  {
    "name": "대림한숲타운 개방화장실",
    "address": "서울특별시 은평구 은평터널로 65",
    "lat": 37.586848,
    "lng": 126.900049
  },
  {
    "name": "서울중앙교회 개방화장실",
    "address": "서울특별시 은평구 가좌로7다길 11",
    "lat": 37.584919,
    "lng": 126.918419
  },
  {
    "name": "애필리움아파트 상가 개방화장실",
    "address": "서울특별시 은평구 불광천길 536",
    "lat": 37.597855,
    "lng": 126.916421
  },
  {
    "name": "대림시장 개방화장실",
    "address": "서울특별시 은평구 응암로4길 20",
    "lat": 37.596803,
    "lng": 126.917619
  },
  {
    "name": "순복음교회 개방화장실",
    "address": "서울특별시 은평구 역말로8길 25",
    "lat": 37.609147,
    "lng": 126.923507
  },
  {
    "name": "수색뉴타운주유소 화장실",
    "address": "서울특별시 은평구 수색로 350",
    "lat": 37.58713,
    "lng": 126.8875
  },
  {
    "name": "청구성심병원 화장실",
    "address": "서울특별시 은평구 통일로 873",
    "lat": 37.620821,
    "lng": 126.919587
  },
  {
    "name": "서울병원 개방화장실",
    "address": "서울특별시 은평구 진흥로 191",
    "lat": 37.608836,
    "lng": 126.930738
  },
  {
    "name": "서울기록원 화장실",
    "address": "서울특별시 은평구 통일로 62길 7",
    "lat": 37.607415,
    "lng": 126.93477
  },
  {
    "name": "대조동우체국 화장실",
    "address": "서울특별시 은평구 통일로71길 20",
    "lat": 37.612824,
    "lng": 126.926734
  },
  {
    "name": "은평우체국 화장실",
    "address": "서울특별시 은평구 진관2로 29-8",
    "lat": 37.635329,
    "lng": 126.920551
  },
  {
    "name": "선거관리위원회 화장실",
    "address": "서울특별시 은평구 통일로71길 16",
    "lat": 37.613444,
    "lng": 126.92606
  },
  {
    "name": "은평다목적체육관 화장실",
    "address": "서울특별시 은평구 진관1로 40",
    "lat": 37.631173,
    "lng": 126.925183
  },
  {
    "name": "은평구립축구장 화장실",
    "address": "서울특별시 은평구 진관1로 40",
    "lat": 37.630626,
    "lng": 126.924871
  },
  {
    "name": "은평구민체육센터 화장실",
    "address": "서울특별시 은평구 진관1로 40",
    "lat": 37.630415,
    "lng": 126.923681
  },
  {
    "name": "매바위공동주차장 화장실",
    "address": "서울특별시 은평구 응암로 가좌로5길 16-1",
    "lat": 37.586476,
    "lng": 126.921047
  },
  {
    "name": "은평평화공원 공영주차장 화장실",
    "address": "서울특별시 은평구 서오릉로 47",
    "lat": 37.605149,
    "lng": 126.923023
  },
  {
    "name": "응암공영주차장 개방화장실",
    "address": "서울특별시 은평구 불광천길 436",
    "lat": 37.593427,
    "lng": 126.915413
  },
  {
    "name": "수색공영주차장 화장실",
    "address": "서울특별시 은평구 수색로12길 2",
    "lat": 37.580501,
    "lng": 126.898951
  },
  {
    "name": "은평 공영차고지 화장실",
    "address": "서울특별시 은평구 수색로24길 19",
    "lat": 37.592004,
    "lng": 126.883958
  },
  {
    "name": "상현빌딩 개방화장실",
    "address": "서울특별시 은평구 은평로 170",
    "lat": 37.601209,
    "lng": 126.926924
  },
  {
    "name": "CU 은평 한옥마을점 개방화장실",
    "address": "서울특별시 은평구 진관길 9 1층",
    "lat": 37.642239,
    "lng": 126.939469
  },
  {
    "name": "유호루하스 개방화장실",
    "address": "서울특별시 은평구 갈현로 300",
    "lat": 37.623589,
    "lng": 126.917437
  },
  {
    "name": "대조동 루터교회 개방화장실",
    "address": "서울특별시 은평구 서오릉로 10길 12-6",
    "lat": 37.610891,
    "lng": 126.920248
  },
  {
    "name": "은평세무서 공중화장실",
    "address": "서울특별시 은평구 서오릉로 7",
    "lat": 37.601833,
    "lng": 126.926401
  },
  {
    "name": "은평경찰서 화장실",
    "address": "서울특별시 은평구 연서로 365",
    "lat": 37.6280204,
    "lng": 126.9287899
  },
  {
    "name": "대조파출소 화장실",
    "address": "서울특별시 은평구 통일로 737",
    "lat": 37.6111118,
    "lng": 126.9290008
  },
  {
    "name": "연신내지구대 화장실",
    "address": "서울특별시 은평구 갈현로 195",
    "lat": 37.6151594,
    "lng": 126.9126893
  },
  {
    "name": "불광지구대 화장실",
    "address": "서울특별시 은평구 연서로 290",
    "lat": 37.621396,
    "lng": 126.9265549
  },
  {
    "name": "서울서부경찰서 화장실",
    "address": "서울특별시 은평구 진흥로 58",
    "lat": 37.60211,
    "lng": 126.9213
  },
  {
    "name": "응암지구대 화장실",
    "address": "서울특별시 은평구 은평로 171",
    "lat": 37.6015523,
    "lng": 126.9263123
  },
  {
    "name": "신사지구대 화장실",
    "address": "서울특별시 은평구 은평터널로5길 6",
    "lat": 37.59182,
    "lng": 126.90543
  },
  {
    "name": "녹번파출소 화장실",
    "address": "서울특별시 은평구 진흥로 200",
    "lat": 37.608812,
    "lng": 126.931836
  },
  {
    "name": "역촌파출소 1층 화장실",
    "address": "서울특별시 은평구 연서로 61",
    "lat": 37.604588,
    "lng": 126.915066
  },
  {
    "name": "응암3파출소 화장실",
    "address": "서울특별시 은평구 응암로 208",
    "lat": 37.59069,
    "lng": 126.9176
  },
  {
    "name": "은평소방서 화장실",
    "address": "서울특별시 은평구 통일로 962",
    "lat": 37.62895,
    "lng": 126.9199
  },
  {
    "name": "녹번119안전센터 화장실",
    "address": "서울특별시 은평구 은평로 245",
    "lat": 37.60111,
    "lng": 126.9349
  },
  {
    "name": "역촌119안전센터 화장실",
    "address": "서울특별시 은평구 갈현로 80",
    "lat": 37.60499,
    "lng": 126.9107
  },
  {
    "name": "수색119안전센터 화장실",
    "address": "서울특별시 은평구 수색로 320",
    "lat": 37.5852,
    "lng": 126.8899
  },
  {
    "name": "구파발역 화장실",
    "address": "서울특별시 은평구 진관동 67-26 3호선 구파발역",
    "lat": 37.600702,
    "lng": 126.936005
  },
  {
    "name": "연신내역(3) 화장실",
    "address": "서울특별시 은평구 갈현동 397 연신내역(3호선)",
    "lat": 37.588672,
    "lng": 126.944227
  },
  {
    "name": "불광역(3) 화장실",
    "address": "서울특별시 은평구 대조동 14-1 불광역(3호선)",
    "lat": 37.582361,
    "lng": 126.950438
  },
  {
    "name": "녹번역 화장실",
    "address": "서울특별시 은평구 녹번동 55 지하철3호선 녹번역",
    "lat": 37.574301,
    "lng": 126.955918
  },
  {
    "name": "응암역 화장실",
    "address": "서울특별시 은평구 역촌동 85-41 응암역",
    "lat": 37.598472,
    "lng": 126.913403
  },
  {
    "name": "역촌역 화장실",
    "address": "서울특별시 은평구 녹번동 144-69 역촌역",
    "lat": 37.60515,
    "lng": 126.919893
  },
  {
    "name": "불광역(6) 화장실",
    "address": "서울특별시 은평구 대조동 14-1 불광역(6호선)",
    "lat": 37.610098,
    "lng": 126.928007
  },
  {
    "name": "독바위역 화장실",
    "address": "서울특별시 은평구 불광동 13-33 독바위역",
    "lat": 37.618387,
    "lng": 126.930848
  },
  {
    "name": "연신내역(6) 화장실",
    "address": "서울특별시 은평구 갈현동 397 연신내역",
    "lat": 37.618812,
    "lng": 126.918653
  },
  {
    "name": "양천리누리터 어린이공원 화장실",
    "address": "서울특별시 은평구 통일로 668, 양천누리터 공중화장실 (녹번동)",
    "lat": 37.06496,
    "lng": 126.934163
  },
  {
    "name": "새락골 어린이공원 화장실",
    "address": "서울특별시 은평구 은평로3가길 34",
    "lat": 37.599015,
    "lng": 126.911331
  },
  {
    "name": "구산동 마을공원 화장실",
    "address": "서울특별시 은평구 서오릉로17길 2-9",
    "lat": 37.614782,
    "lng": 126.908163
  },
  {
    "name": "금암문화공원 화장실",
    "address": "서울특별시 은평구 진관3로 15-59",
    "lat": 37.644689,
    "lng": 126.918225
  },
  {
    "name": "은평구청 본관 화장실",
    "address": "서울특별시 은평구 은평로 195",
    "lat": 37.602456,
    "lng": 126.929387
  },
  {
    "name": "은평구 의회 화장실",
    "address": "서울특별시 은평구 은평로 195",
    "lat": 37.602456,
    "lng": 126.929387
  },
  {
    "name": "은평구 보건소 화장실",
    "address": "서울특별시 은평구 은평로 195",
    "lat": 37.602816,
    "lng": 126.928909
  },
  {
    "name": "불광보건분소 화장실",
    "address": "서울특별시 은평구 연서로34길 11",
    "lat": 37.6215226,
    "lng": 126.9277063
  },
  {
    "name": "구산보건지소 화장실",
    "address": "서울특별시 은평구 연서로13길 29-7",
    "lat": 37.609775,
    "lng": 126.912755
  },
  {
    "name": "응암보건지소 화장실",
    "address": "서울특별시 은평구 가좌로 195",
    "lat": 37.588079,
    "lng": 126.919509
  },
  {
    "name": "녹번동 주민센터 화장실",
    "address": "서울특별시 은평구 은평로 195",
    "lat": 37.602178,
    "lng": 126.929954
  },
  {
    "name": "불광1동 주민센터 화장실",
    "address": "서울특별시 은평구 진흥로15길 10",
    "lat": 37.610337,
    "lng": 126.932079
  },
  {
    "name": "불광2동 주민센터 화장실",
    "address": "서울특별시 은평구 연서로 282",
    "lat": 37.62079,
    "lng": 126.925709
  },
  {
    "name": "갈현1동 주민센터 화장실",
    "address": "서울특별시 은평구 갈현로 301",
    "lat": 37.62372,
    "lng": 126.9167
  },
  {
    "name": "갈현2동 주민센터 화장실",
    "address": "서울특별시 은평구 연서로27길 31-6",
    "lat": 37.618535,
    "lng": 126.915912
  },
  {
    "name": "구산동 주민센터 화장실",
    "address": "서울특별시 은평구 갈현로17길 10",
    "lat": 37.61172,
    "lng": 126.910355
  },
  {
    "name": "대조동 주민센터 화장실",
    "address": "서울특별시 은평구 연서로20길 24-3",
    "lat": 37.614158,
    "lng": 126.920836
  },
  {
    "name": "응암1동 주민센터 화장실",
    "address": "서울특별시 은평구 백련산로 179",
    "lat": 37.600815,
    "lng": 126.926713
  },
  {
    "name": "응암2동 주민센터 화장실",
    "address": "서울특별시 은평구 백련산로100",
    "lat": 37.5945,
    "lng": 126.9241
  },
  {
    "name": "응암3동 주민센터 화장실",
    "address": "서울특별시 은평구 불광천길 410-17",
    "lat": 37.592435,
    "lng": 126.915652
  },
  {
    "name": "역촌동 주민센터 화장실",
    "address": "서울특별시 은평구 연서로 59",
    "lat": 37.604547,
    "lng": 126.915092
  },
  {
    "name": "신사1동 주민센터 화장실",
    "address": "서울특별시 은평구 은평로2길 2",
    "lat": 37.596064,
    "lng": 126.911855
  },
  {
    "name": "신사2동 주민센터 화장실",
    "address": "서울특별시 은평구 증산로15길 47",
    "lat": 37.590355,
    "lng": 126.908344
  },
  {
    "name": "증산동 주민센터 화장실",
    "address": "서울특별시 은평구 증산서길 89",
    "lat": 37.58435,
    "lng": 126.907
  },
  {
    "name": "수색동 주민센터 화장실",
    "address": "서울특별시 은평구 수색로 280",
    "lat": 37.583447,
    "lng": 126.893665
  },
  {
    "name": "진관동 주민센터 화장실",
    "address": "서울특별시 은평구 진관2로 31",
    "lat": 37.635047,
    "lng": 126.920961
  },
  {
    "name": "은평구 평생학습관 화장실",
    "address": "서울특별시 은평구 서오릉로 87",
    "lat": 37.607918,
    "lng": 126.921228
  },
  {
    "name": "불광천미디어센터 화장실",
    "address": "서울특별시 은평구 증산로476",
    "lat": 37.598686,
    "lng": 126.915884
  },
  {
    "name": "은평문화원 화장실",
    "address": "서울특별시 은평구 수색로 282",
    "lat": 37.583647,
    "lng": 126.893205
  },
  {
    "name": "은평문화예술회관 화장실",
    "address": "서울특별시 은평구 녹번로 16",
    "lat": 37.603532,
    "lng": 126.927813
  },
  {
    "name": "은평한문화박물관 화장실",
    "address": "서울특별시 은평구 연서로50길 8",
    "lat": 37.640719,
    "lng": 126.938072
  },
  {
    "name": "너나들이센터 화장실",
    "address": "서울특별시 은평구 연서로50길 10",
    "lat": 37.640572,
    "lng": 126.938563
  },
  {
    "name": "셋이서문학관 화장실",
    "address": "서울특별시 은평구 진관길 23",
    "lat": 37.641546,
    "lng": 126.941176
  },
  {
    "name": "삼각산금암미술관 화장실",
    "address": "서울특별시 은평구 진관길 21-2",
    "lat": 37.641679,
    "lng": 126.941111
  },
  {
    "name": "은평구 보훈회관 화장실",
    "address": "서울특별시 은평구 진관2로 31",
    "lat": 37.63497075,
    "lng": 126.9207849
  },
  {
    "name": "녹번종합사회복지관 화장실",
    "address": "서울특별시 은평구 은평로21길 14-26",
    "lat": 37.60275377,
    "lng": 126.9317557
  },
  {
    "name": "신사종합사회복지관 화장실",
    "address": "서울특별시 은평구 은평로 38",
    "lat": 37.2979185,
    "lng": 126.9122932
  },
  {
    "name": "은평종합사회복지관 화장실",
    "address": "서울특별시 은평구 수색로 332",
    "lat": 37.586049,
    "lng": 126.888811
  },
  {
    "name": "구립역촌노인복지관 화장실",
    "address": "서울특별시 은평구 연서로 3나길 11-30",
    "lat": 37.603371,
    "lng": 126.911299
  },
  {
    "name": "구립갈현노인복지관 화장실",
    "address": "서울특별시 은평구 통일로89길 12-6",
    "lat": 37.624911,
    "lng": 126.918703
  },
  {
    "name": "구립응암노인복지관 화장실",
    "address": "서울특별시 은평구 응암로 21가길 5-1",
    "lat": 37.594612,
    "lng": 126.916734
  },
  {
    "name": "구립불광노인복지관 화장실",
    "address": "서울특별시 은평구 연서로 32길 17-11",
    "lat": 37.619497,
    "lng": 123.924885
  },
  {
    "name": "구립신사노인복지관 화장실",
    "address": "서울특별시 은평구 증산로15길 47",
    "lat": 37.5903486,
    "lng": 126.9083562
  },
  {
    "name": "구립대조노인복지관 화장실",
    "address": "서울특별시 은평구 역말로9길 27",
    "lat": 37.613528,
    "lng": 126.921995
  },
  {
    "name": "시립은평노인종합복지관 화장실",
    "address": "서울특별시 은평구 연서로415",
    "lat": 37.631833,
    "lng": 126.930447
  },
  {
    "name": "구립은평어르신일자리센터 화장실",
    "address": "서울특별시 은평구 증산로23길 7",
    "lat": 37.597419,
    "lng": 126.914333
  },
  {
    "name": "상징녹지대 공중화장실",
    "address": "서울특별시 은평구 북한산로 85",
    "lat": 37.6455578,
    "lng": 126.9229576
  },
  {
    "name": "진관사입구 공중화장실",
    "address": "서울특별시 은평구",
    "lat": 37.641067,
    "lng": 126.943002
  },
  {
    "name": "목2동 공중화장실",
    "address": "서울특별시 양천구 목동중앙로13길 22",
    "lat": 37.5451692,
    "lng": 126.8820327
  },
  {
    "name": "기독교방송",
    "address": "서울특별시 양천구 목동서로 159-1",
    "lat": 37.5283066,
    "lng": 126.8748903
  },
  {
    "name": "화성프라자",
    "address": "서울특별시 양천구 목동동로 435(목동)",
    "lat": 37.5374034,
    "lng": 126.8848773
  },
  {
    "name": "택민빌딩(신협빌딩)",
    "address": "서울특별시 양천구 공항대로 550(목동)",
    "lat": 37.5497423,
    "lng": 126.8665704
  },
  {
    "name": "등촌빌딩",
    "address": "서울특별시 양천구 등촌로 172(목동)",
    "lat": 37.5450198,
    "lng": 126.8626107
  },
  {
    "name": "롯데리아목동사거리점",
    "address": "서울특별시 양천구 등촌로 28(목동)",
    "lat": 37.5325721,
    "lng": 126.8640574
  },
  {
    "name": "부영그린타운2차",
    "address": "서울특별시 양천구 목동동로 401",
    "lat": 37.5363533,
    "lng": 126.8811224
  },
  {
    "name": "한사랑교회",
    "address": "서울특별시 양천구 목동동로 33(신정동)",
    "lat": 37.5145513,
    "lng": 126.8594633
  },
  {
    "name": "현승빌딩",
    "address": "서울특별시 양천구 신목로 34(신정동)",
    "lat": 37.5186553,
    "lng": 126.8740241
  },
  {
    "name": "신목동주유소",
    "address": "서울특별시 양천구 목동동로10길 13(신정동)",
    "lat": 37.5195788,
    "lng": 126.8710739
  },
  {
    "name": "남부빌딩",
    "address": "서울특별시 양천구 신월로 389(신정동)",
    "lat": 37.5228136,
    "lng": 126.8641999
  },
  {
    "name": "신신코아빌딩",
    "address": "서울특별시 양천구 신월로 361",
    "lat": 37.5222904,
    "lng": 126.8609109
  },
  {
    "name": "영송빌딩",
    "address": "서울특별시 양천구 신월로 337",
    "lat": 37.5220052,
    "lng": 126.8584803
  },
  {
    "name": "새금성교회",
    "address": "서울특별시 양천구 신정이펜1로 92",
    "lat": 37.5144988,
    "lng": 126.8288152
  },
  {
    "name": "동일석유㈜ 개나리주유소",
    "address": "서울특별시 양천구 남부순환로 442",
    "lat": 37.5282825,
    "lng": 126.8329476
  },
  {
    "name": "서울삼일교회",
    "address": "서울특별시 양천구 남부순환로50길 21",
    "lat": 37.5331642,
    "lng": 126.8281135
  },
  {
    "name": "지우빌딩",
    "address": "서울특별시 양천구 오목로 15",
    "lat": 37.5215768,
    "lng": 126.8393625
  },
  {
    "name": "강서제일교회",
    "address": "서울특별시 양천구 화곡로10길 19",
    "lat": 37.5379258,
    "lng": 126.8314222
  },
  {
    "name": "우성상가",
    "address": "서울특별시 양천구 지양로 78",
    "lat": 37.522662,
    "lng": 126.833615
  },
  {
    "name": "성실통운",
    "address": "서울특별시 양천구 곰달래로6길 41",
    "lat": 37.5265098,
    "lng": 126.8372142
  },
  {
    "name": "센트럴프라자",
    "address": "서울특별시 양천구 목동서로 349",
    "lat": 37.5174938,
    "lng": 126.8654977
  },
  {
    "name": "현대드림타워",
    "address": "서울특별시 양천구 목동동로 233-1",
    "lat": 37.5274646,
    "lng": 126.871643
  },
  {
    "name": "현대41타워",
    "address": "서울특별시 양천구 목동동로 293",
    "lat": 37.5281764,
    "lng": 126.8758132
  },
  {
    "name": "양천현대셀프주유소",
    "address": "서울특별시 양천구 안양천로 1179",
    "lat": 37.5459778,
    "lng": 126.8813541
  },
  {
    "name": "(주)삼표에너지 목동주유소",
    "address": "서울특별시 양천구 목동서로 129",
    "lat": 37.5321651,
    "lng": 126.8755188
  },
  {
    "name": "대한민국예술인센터",
    "address": "서울특별시 양천구 목동서로 225",
    "lat": 37.5270892,
    "lng": 126.8706189
  },
  {
    "name": "목4동시장 고객지원센터",
    "address": "서울특별시 양천구 목동중앙남로7길 8",
    "lat": 37.5376182,
    "lng": 126.8662124
  },
  {
    "name": "경창시장 고객지원센터",
    "address": "서울특별시 양천구 오목로9길 31",
    "lat": 37.5249471,
    "lng": 126.8421229
  },
  {
    "name": "신영시장 고객지원센터",
    "address": "서울특별시 양천구 월정로 161-5",
    "lat": 37.5330247,
    "lng": 126.8360262
  },
  {
    "name": "에이치케이웨딩홀",
    "address": "서울특별시 학동로 519 (청담동)",
    "lat": 37.5201877427,
    "lng": 127.0554556476
  },
  {
    "name": "서울과학기술대학교 종합스타디움(동아리관)",
    "address": "서울특별시 노원구 공릉로 232",
    "lat": 37.6316684,
    "lng": 127.0774813
  },
  {
    "name": "서울과학기술대학교 테크노큐브",
    "address": "서울특별시 노원구 공릉로 232",
    "lat": 37.6316684,
    "lng": 127.0774813
  },
  {
    "name": "서울과학기술대학교 미래관",
    "address": "서울특별시 노원구 공릉로 232",
    "lat": 37.6316684,
    "lng": 127.0774813
  },
  {
    "name": "서울과학기술대학교 학군단",
    "address": "서울특별시 노원구 공릉로 232",
    "lat": 37.6316684,
    "lng": 127.0774813
  },
  {
    "name": "서울과학기술대학교 무궁관",
    "address": "서울특별시 노원구 공릉로 232",
    "lat": 37.6316684,
    "lng": 127.0774813
  },
  {
    "name": "서울과학기술대학교 대륙관",
    "address": "서울특별시 노원구 공릉로 232",
    "lat": 37.6316684,
    "lng": 127.0774813
  },
  {
    "name": "서울과학기술대학교 체육관",
    "address": "서울특별시 노원구 공릉로 232",
    "lat": 37.6316684,
    "lng": 127.0774813
  },
  {
    "name": "서울과학기술대학교 아름관",
    "address": "서울특별시 노원구 공릉로 232",
    "lat": 37.6316684,
    "lng": 127.0774813
  },
  {
    "name": "서울과학기술대학교 상상관",
    "address": "서울특별시 노원구 공릉로 232",
    "lat": 37.6316684,
    "lng": 127.0774813
  },
  {
    "name": "서울과학기술대학교 제2학생회관",
    "address": "서울특별시 노원구 공릉로 232",
    "lat": 37.6316684,
    "lng": 127.0774813
  },
  {
    "name": "서울과학기술대학교 100주년기념관",
    "address": "서울특별시 노원구 공릉로 232",
    "lat": 37.6316684,
    "lng": 127.0774813
  },
  {
    "name": "서울과학기술대학교 어의관",
    "address": "서울특별시 노원구 공릉로 232",
    "lat": 37.6316684,
    "lng": 127.0774813
  },
  {
    "name": "서울과학기술대학교 다빈치관",
    "address": "서울특별시 노원구 공릉로 232",
    "lat": 37.6316684,
    "lng": 127.0774813
  },
  {
    "name": "서울과학기술대학교 국제관",
    "address": "서울특별시 노원구 공릉로 232",
    "lat": 37.6316684,
    "lng": 127.0774813
  },
  {
    "name": "서울과학기술대학교 제1학생회관",
    "address": "서울특별시 노원구 공릉로 232",
    "lat": 37.6316684,
    "lng": 127.0774813
  },
  {
    "name": "서울과학기술대학교 중앙도서관 별관",
    "address": "서울특별시 노원구 공릉로 232",
    "lat": 37.6316684,
    "lng": 127.0774813
  },
  {
    "name": "서울과학기술대학교 중앙도서관",
    "address": "서울특별시 노원구 공릉로 232",
    "lat": 37.6316684,
    "lng": 127.0774813
  },
  {
    "name": "서울과학기술대학교 하이테크관",
    "address": "서울특별시 노원구 공릉로 232",
    "lat": 37.6316684,
    "lng": 127.0774813
  },
  {
    "name": "서울과학기술대학교 프론티어관",
    "address": "서울특별시 노원구 공릉로 232",
    "lat": 37.6316684,
    "lng": 127.0774813
  },
  {
    "name": "서울과학기술대학교 창업보육센터",
    "address": "서울특별시 노원구 공릉로 232",
    "lat": 37.6316684,
    "lng": 127.0774813
  },
  {
    "name": "서울과학기술대학교 도예실습실",
    "address": "서울특별시 노원구 공릉로 232",
    "lat": 37.6316684,
    "lng": 127.0774813
  },
  {
    "name": "서울과학기술대학교 창조관",
    "address": "서울특별시 노원구 공릉로 232",
    "lat": 37.6316684,
    "lng": 127.0774813
  },
  {
    "name": "서울과학기술대학교 청운관",
    "address": "서울특별시 노원구 공릉로 232",
    "lat": 37.6316684,
    "lng": 127.0774813
  },
  {
    "name": "노원1종합사회복지관",
    "address": "서울특별시 노원구 월계로 372",
    "lat": 37.632664,
    "lng": 127.060077
  },
  {
    "name": "공릉종합사회복지관",
    "address": "서울특별시 노원구 동일로 1127",
    "lat": 37.629022,
    "lng": 127.069263
  },
  {
    "name": "노원평생학습관",
    "address": "서울특별시 노원구 동일로204길 13",
    "lat": 37.654395,
    "lng": 127.056519
  },
  {
    "name": "온수골행복발전소",
    "address": "서울특별시 노원구 노원로 522",
    "lat": 37.394027,
    "lng": 127.033936
  },
  {
    "name": "상계10동주민센터",
    "address": "서울특별시 노원구 노원로 530",
    "lat": 37.394067,
    "lng": 127.033691
  },
  {
    "name": "상계6.7동 주민센터",
    "address": "서울특별시 노원구 노원로 429",
    "lat": 37.654395,
    "lng": 127.056519
  },
  {
    "name": "육사야구장 화장실",
    "address": "서울특별시 태릉로 682",
    "lat": 37.629487,
    "lng": 127.098858
  },
  {
    "name": "상계1동주민센터",
    "address": "서울특별시 노원구 동일로1697",
    "lat": 37.67982,
    "lng": 127.05493
  },
  {
    "name": "목동공영주차장",
    "address": "서울특별시 양천구 목동동로 298",
    "lat": 37.52889,
    "lng": 126.87849
  },
  {
    "name": "해맞이공영주차장",
    "address": "서울특별시 양천구 지양로 53-1",
    "lat": 37.52203,
    "lng": 126.83182
  },
  {
    "name": "가로공원공영주차장",
    "address": "서울특별시 양천구 가로공원로 116-1",
    "lat": 37.53649,
    "lng": 126.83035
  },
  {
    "name": "여울공영주차장",
    "address": "서울특별시 양천구 가로공원로 72",
    "lat": 37.53521,
    "lng": 126.82415
  },
  {
    "name": "해누리타운",
    "address": "서울특별시 양천구 목동동로 81",
    "lat": 37.51613,
    "lng": 126.86377
  },
  {
    "name": "계남다목적체육관",
    "address": "서울특별시 양천구 신정로 273-5",
    "lat": 37.513194,
    "lng": 126.85091
  },
  {
    "name": "건강힐링문화관",
    "address": "서울특별시 양천구 남부순환로83길 54",
    "lat": 37.51767,
    "lng": 126.84588
  },
  {
    "name": "신월문화체육센터",
    "address": "서울특별시 양천구 지양로 47",
    "lat": 37.51995,
    "lng": 126.83496
  },
  {
    "name": "목동문화체육센터",
    "address": "서울특별시 양천구 목동중앙본로73",
    "lat": 37.542983,
    "lng": 126.869191
  },
  {
    "name": "서울과학기술대학교 혜성관/제2창업보육센터",
    "address": "서울특별시 노원구 공릉로 232",
    "lat": 37.6316684,
    "lng": 127.0774813
  },
  {
    "name": "서울과학기술대학교 창학관",
    "address": "서울특별시 노원구 공릉로 232",
    "lat": 37.6316684,
    "lng": 127.0774813
  },
  {
    "name": "서울과학기술대학교 다산관",
    "address": "서울특별시 노원구 공릉로 232",
    "lat": 37.6316684,
    "lng": 127.0774813
  },
  {
    "name": "서울과학기술대학교 대학본부",
    "address": "서울특별시 노원구 공릉로 232",
    "lat": 37.6316684,
    "lng": 127.0774813
  },
  {
    "name": "수락산스포츠타운",
    "address": "서울특별시 노원구 수락산로8나길 10",
    "lat": 37.668672,
    "lng": 127.071702
  },
  {
    "name": "초안산스포츠타운",
    "address": "서울특별시 노원구 마들로5가길 113",
    "lat": 37.639385,
    "lng": 127.051004
  },
  {
    "name": "불암산배드민턴장",
    "address": "서울특별시 노원구 중계로 36",
    "lat": 37.638707,
    "lng": 127.082944
  },
  {
    "name": "마들테니스장",
    "address": "서울특별시 노원구 덕릉로 450",
    "lat": 37.644338,
    "lng": 127.059939
  },
  {
    "name": "당고개배드민턴장",
    "address": "서울특별시 노원구 상계로 273",
    "lat": 37.668633,
    "lng": 127.075851
  },
  {
    "name": "마들스타디움",
    "address": "서울특별시 노원구 덕릉로 450",
    "lat": 37.644159,
    "lng": 127.058096
  },
  {
    "name": "가재울공영주차장",
    "address": "서울특별시 노원구 하계1동 252-6(상계동)",
    "lat": 37.637915,
    "lng": 127.072638
  },
  {
    "name": "초안산 캠핑장",
    "address": "서울특별시 노원구 월계동 750번지 일대",
    "lat": 37.642788,
    "lng": 127.049877
  },
  {
    "name": "월계구민체육센터",
    "address": "서울특별시 노원구 월계로 298",
    "lat": 37.626634,
    "lng": 127.054653
  },
  {
    "name": "중계구민체육센터",
    "address": "서울특별시 노원구 노원로 22길1",
    "lat": 37.648178,
    "lng": 127.070601
  },
  {
    "name": "중계2·3동주민센터",
    "address": "서울특별시 노원구 노원로17길 56",
    "lat": 37.654395,
    "lng": 127.056519
  },
  {
    "name": "하계종합사회복지관",
    "address": "서울특별시 노원구 노원로16길15",
    "lat": 37.641653,
    "lng": 127.075383
  },
  {
    "name": "평화종합사회복지관",
    "address": "서울특별시 노원구 노원로 331",
    "lat": 37.646504,
    "lng": 127.069134
  },
  {
    "name": "북부종합사회복지관",
    "address": "서울특별시 노원구 동일로245길 56",
    "lat": 37.679825,
    "lng": 127.052391
  },
  {
    "name": "중계종합사회복지관",
    "address": "서울특별시 노원구 덕릉로 662",
    "lat": 37.656584,
    "lng": 127.075943
  },
  {
    "name": "월계종합사회복지관",
    "address": "서울특별시 노원구 초안산로 1길51",
    "lat": 37.654395,
    "lng": 127.056519
  },
  {
    "name": "목동종합사회복지관",
    "address": "서울특별시 양천구 목동중앙북로8길 104",
    "lat": 37.5443,
    "lng": 126.8663
  },
  {
    "name": "신월종합사회복지관",
    "address": "서울특별시 양천구 신월로24길 19",
    "lat": 37.51999,
    "lng": 126.84721
  },
  {
    "name": "한빛종합사회복지관",
    "address": "서울특별시 양천구 신월로11길 16",
    "lat": 37.5191,
    "lng": 126.8402
  },
  {
    "name": "신정종합사회복지관",
    "address": "서울특별시 양천구 신정중앙로 36",
    "lat": 37.5272,
    "lng": 126.8556
  },
  {
    "name": "목1동주민센터",
    "address": "서울특별시 양천구 목동서로 192",
    "lat": 37.53033,
    "lng": 126.8716
  },
  {
    "name": "신월4동주민센터",
    "address": "서울특별시 양천구 오목로5길 34",
    "lat": 37.524664,
    "lng": 126.840004
  },
  {
    "name": "신월6동주민센터",
    "address": "서울특별시 양천구 남부순환로83길 53",
    "lat": 37.518065,
    "lng": 126.845129
  },
  {
    "name": "상계종합사회복지관",
    "address": "서울특별시 노원구 덕릉로115나길 25",
    "lat": 37.667789,
    "lng": 127.078237
  },
  {
    "name": "마들종합사회복지관",
    "address": "서울특별시 노원구 동일로210길 22",
    "lat": 37.646977,
    "lng": 127.065269
  },
  {
    "name": "원터행복발전소",
    "address": "서울특별시 노원구 상계로23길 17",
    "lat": 37.658811,
    "lng": 127.068504
  },
  {
    "name": "상계2동주민센터",
    "address": "서울특별시 노원구 상계로118",
    "lat": 37.657412,
    "lng": 127.067927
  },
  {
    "name": "중계본동주민센터",
    "address": "서울특별시 노원구 중계로 143",
    "lat": 37.647987,
    "lng": 127.080295
  },
  {
    "name": "공릉행복발전소",
    "address": "서울특별시 노원구 동일로179길 22",
    "lat": 37.622023,
    "lng": 127.072731
  },
  {
    "name": "한내행복발전소",
    "address": "서울특별시 노원구 마들로3길 13",
    "lat": 37.627669,
    "lng": 127.062993
  },
  {
    "name": "신정1동주민센터",
    "address": "서울특별시 양천구 중앙로32길 1",
    "lat": 37.316,
    "lng": 126.5116
  },
  {
    "name": "신정2동주민센터",
    "address": "서울특별시 양천구 목동동로 1522",
    "lat": 37.51917,
    "lng": 126.87066
  },
  {
    "name": "㈜새서울개발주차장\n(신월3동 공영주차장)",
    "address": "서울특별시 양천구 남부순환로 380-1",
    "lat": 37.5327043,
    "lng": 126.8286047
  },
  {
    "name": "신목종합사회복지관 (시립시설)",
    "address": "서울특별시 양천구 신목로 5",
    "lat": 37.51698,
    "lng": 126.8765
  },
  {
    "name": "신목종합사회복지관 교육관 (시립시설)",
    "address": "서울특별시 양천구 목동동로 12길 59",
    "lat": 37.5223917,
    "lng": 126.878025
  },
  {
    "name": "양천소방서 화장실(현장대응단)",
    "address": "서울특별시 양천구 목동서로 180",
    "lat": 37.53049,
    "lng": 126.8722
  },
  {
    "name": "신정119안전센터 화장실",
    "address": "서울특별시 양천구 신월로 268",
    "lat": 37.5217578,
    "lng": 126.8509379
  },
  {
    "name": "양천소방서 목동119안전센터",
    "address": "서울특별시 양천구 안양천로 1139",
    "lat": 37.54399,
    "lng": 126.883747
  },
  {
    "name": "양천소방서 신트리119안전센터",
    "address": "서울특별시 양천구 신정로 238",
    "lat": 37.5106073,
    "lng": 126.8479875
  },
  {
    "name": "신정3파출소 화장실",
    "address": "서울특별시 양천구 중앙로 205",
    "lat": 37.514919,
    "lng": 126.854986
  },
  {
    "name": "양천경찰서 목2지구대",
    "address": "서울특별시 양천구  등촌로 166",
    "lat": 37.544547,
    "lng": 126.862384
  },
  {
    "name": "신정1지구대 화장실",
    "address": "서울특별시 양천구 중앙로32길 65",
    "lat": 37.5202606,
    "lng": 126.8607601
  },
  {
    "name": "목1지구대 화장실",
    "address": "서울특별시 양천구 목동동로 373",
    "lat": 37.5350924,
    "lng": 126.8784524
  },
  {
    "name": "신정2지구대 화장실",
    "address": "서울특별시 양천구 목동로17길 5",
    "lat": 37.524399,
    "lng": 126.8635374
  },
  {
    "name": "신월2지구대 화장실",
    "address": "서울특별시 양천구 지양로 55",
    "lat": 37.5205503,
    "lng": 126.8344349
  },
  {
    "name": "신월1파출소 화장실",
    "address": "서울특별시 양천구 남부순환로59길 8",
    "lat": 37.5320806,
    "lng": 126.8322435
  },
  {
    "name": "양천경찰서 화장실",
    "address": "서울특별시 양천구 목동동로 99",
    "lat": 37.5165522,
    "lng": 126.8655457
  },
  {
    "name": "서울특별시 서남병원 화장실",
    "address": "서울특별시 양천구 신정이펜1로 20",
    "lat": 37.55878281,
    "lng": 126.8100743
  },
  {
    "name": "공릉2동주민센터",
    "address": "서울특별시 노원구 노원로1길 68",
    "lat": 37.6212522,
    "lng": 127.083291
  },
  {
    "name": "공릉1동주민센터",
    "address": "서울특별시 노원구 동일로186길 3-24",
    "lat": 37.6248286,
    "lng": 127.0738422
  },
  {
    "name": "104마을 생활문화지원센터",
    "address": "서울특별시 노원구 중계로6나길 39 중계마을복지회관",
    "lat": 37.642667,
    "lng": 127.087385
  },
  {
    "name": "중랑천환경센터 화장실",
    "address": "서울특별시 노원구 덕릉로 430",
    "lat": 36.643629,
    "lng": 127.056077
  },
  {
    "name": "노원에코센터 화장실",
    "address": "서울특별시 노원구 덕릉로 460",
    "lat": 37.6443926,
    "lng": 127.0585595
  },
  {
    "name": "상계3.4동주민센터 화장실",
    "address": "서울특별시 노원구 덕릉로 859 (상계동, 상계3.4동주민센터)",
    "lat": 37.672778,
    "lng": 127.083056
  },
  {
    "name": "월계3동주민센터",
    "address": "서울특별시 노원구 마들로 57",
    "lat": 37.620979,
    "lng": 127.069258
  },
  {
    "name": "하계2동주민센터",
    "address": "서울특별시 노원구 공릉로55길 88",
    "lat": 37.632,
    "lng": 127.0679
  },
  {
    "name": "상계5동주민센터",
    "address": "서울특별시 노원구 한글비석로 434",
    "lat": 37.6629338,
    "lng": 127.0693531
  },
  {
    "name": "중계4동주민센터",
    "address": "서울특별시 노원구 덕릉로82길 50 (중계동)",
    "lat": 37.658761,
    "lng": 127.077975
  },
  {
    "name": "상계9동주민센터",
    "address": "서울특별시 노원구 한글비석로487",
    "lat": 37.6645422,
    "lng": 127.0637982
  },
  {
    "name": "㈜새서울개발주차장\n(신월3동 공영주차장)",
    "address": "서울특별시 양천구 남부순환로 380-1",
    "lat": 37.5327043,
    "lng": 126.8286047
  },
  {
    "name": "신목종합사회복지관 (시립시설)",
    "address": "서울특별시 양천구 신목로 5",
    "lat": 37.51698,
    "lng": 126.8765
  },
  {
    "name": "신목종합사회복지관 교육관 (시립시설)",
    "address": "서울특별시 양천구 목동동로 12길 59",
    "lat": 37.5223917,
    "lng": 126.878025
  },
  {
    "name": "양천소방서 화장실(현장대응단)",
    "address": "서울특별시 양천구 목동서로 180",
    "lat": 37.53049,
    "lng": 126.8722
  },
  {
    "name": "신정119안전센터 화장실",
    "address": "서울특별시 양천구 신월로 268",
    "lat": 37.5217578,
    "lng": 126.8509379
  },
  {
    "name": "양천소방서 목동119안전센터",
    "address": "서울특별시 양천구 안양천로 1139",
    "lat": 37.54399,
    "lng": 126.883747
  },
  {
    "name": "양천소방서 신트리119안전센터",
    "address": "서울특별시 양천구 신정로 238",
    "lat": 37.5106073,
    "lng": 126.8479875
  },
  {
    "name": "신정3파출소 화장실",
    "address": "서울특별시 양천구 중앙로 205",
    "lat": 37.514919,
    "lng": 126.854986
  },
  {
    "name": "양천경찰서 목2지구대",
    "address": "서울특별시 양천구  등촌로 166",
    "lat": 37.544547,
    "lng": 126.862384
  },
  {
    "name": "신정1지구대 화장실",
    "address": "서울특별시 양천구 중앙로32길 65",
    "lat": 37.5202606,
    "lng": 126.8607601
  },
  {
    "name": "목1지구대 화장실",
    "address": "서울특별시 양천구 목동동로 373",
    "lat": 37.5350924,
    "lng": 126.8784524
  },
  {
    "name": "신정2지구대 화장실",
    "address": "서울특별시 양천구 목동로17길 5",
    "lat": 37.524399,
    "lng": 126.8635374
  },
  {
    "name": "신월2지구대 화장실",
    "address": "서울특별시 양천구 지양로 55",
    "lat": 37.5205503,
    "lng": 126.8344349
  },
  {
    "name": "신월1파출소 화장실",
    "address": "서울특별시 양천구 남부순환로59길 8",
    "lat": 37.5320806,
    "lng": 126.8322435
  },
  {
    "name": "양천경찰서 화장실",
    "address": "서울특별시 양천구 목동동로 99",
    "lat": 37.5165522,
    "lng": 126.8655457
  },
  {
    "name": "서울특별시 서남병원 화장실",
    "address": "서울특별시 양천구 신정이펜1로 20",
    "lat": 37.55878281,
    "lng": 126.8100743
  },
  {
    "name": "목동공영주차장",
    "address": "서울특별시 양천구 목동동로 298",
    "lat": 37.52889,
    "lng": 126.87849
  },
  {
    "name": "해맞이공영주차장",
    "address": "서울특별시 양천구 지양로 53-1",
    "lat": 37.52203,
    "lng": 126.83182
  },
  {
    "name": "가로공원공영주차장",
    "address": "서울특별시 양천구 가로공원로 116-1",
    "lat": 37.53649,
    "lng": 126.83035
  },
  {
    "name": "여울공영주차장",
    "address": "서울특별시 양천구 가로공원로 72",
    "lat": 37.53521,
    "lng": 126.82415
  },
  {
    "name": "해누리타운",
    "address": "서울특별시 양천구 목동동로 81",
    "lat": 37.51613,
    "lng": 126.86377
  },
  {
    "name": "계남다목적체육관",
    "address": "서울특별시 양천구 신정로 273-5",
    "lat": 37.513194,
    "lng": 126.85091
  },
  {
    "name": "건강힐링문화관",
    "address": "서울특별시 양천구 남부순환로83길 54",
    "lat": 37.51767,
    "lng": 126.84588
  },
  {
    "name": "신월문화체육센터",
    "address": "서울특별시 양천구 지양로 47",
    "lat": 37.51995,
    "lng": 126.83496
  },
  {
    "name": "목동문화체육센터",
    "address": "서울특별시 양천구 목동중앙본로73",
    "lat": 37.542983,
    "lng": 126.869191
  },
  {
    "name": "㈜새서울개발주차장\n(신월3동 공영주차장)",
    "address": "서울특별시 양천구 남부순환로 380-1",
    "lat": 37.5327043,
    "lng": 126.8286047
  },
  {
    "name": "신목종합사회복지관 (시립시설)",
    "address": "서울특별시 양천구 신목로 5",
    "lat": 37.51698,
    "lng": 126.8765
  },
  {
    "name": "신목종합사회복지관 교육관 (시립시설)",
    "address": "서울특별시 양천구 목동동로 12길 59",
    "lat": 37.5223917,
    "lng": 126.878025
  },
  {
    "name": "목동종합사회복지관",
    "address": "서울특별시 양천구 목동중앙북로8길 104",
    "lat": 37.5443,
    "lng": 126.8663
  },
  {
    "name": "신월종합사회복지관",
    "address": "서울특별시 양천구 신월로24길 19",
    "lat": 37.51999,
    "lng": 126.84721
  },
  {
    "name": "한빛종합사회복지관",
    "address": "서울특별시 양천구 신월로11길 16",
    "lat": 37.5191,
    "lng": 126.8402
  },
  {
    "name": "신정종합사회복지관",
    "address": "서울특별시 양천구 신정중앙로 36",
    "lat": 37.5272,
    "lng": 126.8556
  },
  {
    "name": "목1동주민센터",
    "address": "서울특별시 양천구 목동서로 192",
    "lat": 37.53033,
    "lng": 126.8716
  },
  {
    "name": "양천소방서 화장실(현장대응단)",
    "address": "서울특별시 양천구 목동서로 180",
    "lat": 37.53049,
    "lng": 126.8722
  },
  {
    "name": "신정119안전센터 화장실",
    "address": "서울특별시 양천구 신월로 268",
    "lat": 37.5217578,
    "lng": 126.8509379
  },
  {
    "name": "양천소방서 목동119안전센터",
    "address": "서울특별시 양천구 안양천로 1139",
    "lat": 37.54399,
    "lng": 126.883747
  },
  {
    "name": "양천소방서 신트리119안전센터",
    "address": "서울특별시 양천구 신정로 238",
    "lat": 37.5106073,
    "lng": 126.8479875
  },
  {
    "name": "신정3파출소 화장실",
    "address": "서울특별시 양천구 중앙로 205",
    "lat": 37.514919,
    "lng": 126.854986
  },
  {
    "name": "양천경찰서 목2지구대",
    "address": "서울특별시 양천구  등촌로 166",
    "lat": 37.544547,
    "lng": 126.862384
  },
  {
    "name": "신정1지구대 화장실",
    "address": "서울특별시 양천구 중앙로32길 65",
    "lat": 37.5202606,
    "lng": 126.8607601
  },
  {
    "name": "목1지구대 화장실",
    "address": "서울특별시 양천구 목동동로 373",
    "lat": 37.5350924,
    "lng": 126.8784524
  },
  {
    "name": "신정2지구대 화장실",
    "address": "서울특별시 양천구 목동로17길 5",
    "lat": 37.524399,
    "lng": 126.8635374
  },
  {
    "name": "신월2지구대 화장실",
    "address": "서울특별시 양천구 지양로 55",
    "lat": 37.5205503,
    "lng": 126.8344349
  },
  {
    "name": "신월1파출소 화장실",
    "address": "서울특별시 양천구 남부순환로59길 8",
    "lat": 37.5320806,
    "lng": 126.8322435
  },
  {
    "name": "양천경찰서 화장실",
    "address": "서울특별시 양천구 목동동로 99",
    "lat": 37.5165522,
    "lng": 126.8655457
  },
  {
    "name": "서울특별시 서남병원 화장실",
    "address": "서울특별시 양천구 신정이펜1로 20",
    "lat": 37.55878281,
    "lng": 126.8100743
  },
  {
    "name": "신월4동주민센터",
    "address": "서울특별시 양천구 오목로5길 34",
    "lat": 37.524664,
    "lng": 126.840004
  },
  {
    "name": "신월6동주민센터",
    "address": "서울특별시 양천구 남부순환로83길 53",
    "lat": 37.518065,
    "lng": 126.845129
  },